OBJECTID,OBJECTID_1,IDESTACION,FECHAACTUAL,MODO,CODIGOESTACION,stop_name,OBSERVACIONES,SITUACION,CODIGOCTMESTACIONREDMETRO,CODIGOEMPRESA,DENOMINACIONABREVIADA,MODOINTERCAMBIADOR,CODIGOINTERCAMBIADOR,TIPO,CODIGOPROVINCIA,CODIGOMUNICIPIO,CODIGOENTIDAD,CODIGONUCLEO,CODIGOVIA,TIPOVIA,PARTICULA,NOMBREVIA,TIPONUMERO,NUMEROPORTAL,CALIFICADORPORTAL,CARRETERA,CODIGOPOSTAL,DISTRITO,SECCIONCENSAL,BARRIO,TESELA,SECTORURBANO,SECTOR,CORREDOR,CORONATARIFARIA,CORONA123,ZONATRANSPORTE,ENCUESTADOMICILIARIA,ENCUESTAAFOROS,HOJA25000,ACONDICIONAMIENTOVIAJEROS,ACONDICIONAMIENTOVEHICULOS,FECHAALTA,FECHAINICIO,FECHAFIN,X,Y,GRADOACCESIBILIDAD,SITUACIONCALLE,DENOMINACION_SAE,INTERURBANOS_CODIGOEMT_CRTM,INTERURBANOS_CODIGOEMT_EMPRESA,stop_id,stop_code,stop_desc,stop_lat,stop_lon,zone_id,stop_url,location_type,parent_station,stop_timezone,wheelchair_boarding
8.0,14051.0,5_142,20170530.0,5.0,142.0,AEROPUERTO T4,,I,142.0,98305.0,,90.0,33.0,U,28.0,79.0,7901.0,790101.0,20169,Ctra,de,Alcobendas a Barajas,SN,SN,,,28042.0,21.0,28.0,214.0,T079916658,790101240.0,4.0,2.0,A,1.0,079-21-575,575.0,,559-2,2.0,3.0,20110914.0,20110915.0,,449828.0,4482718.0,N,,,,,,,,,,,,,,,
14.0,12671.0,5_2,20170530.0,5.0,2.0,ALCALÁ DE HENARES,Con Calle de Valdetorres,S,2.0,70103.0,,93.0,125.0,U,28.0,5.0,501.0,50101.0,A0549,Calle, ,Pedro Lainez,N,2,,,28807.0,7.0,4.0,,T005571,50101029.0,,2.0,B3,3.0,005-018,874.0,1.0,560-1,2.0,3.0,20030331.0,19860101.0,,469063.0,4482309.0,N,,,,,,,,,,,,,,,
16.0,9856.0,5_3,20170530.0,5.0,3.0,ALCALÁ DE HENARES UNIVERSIDAD,Pl Sector 20,S,3.0,70107.0,,93.0,126.0,U,28.0,5.0,501.0,50101.0,99999,Ctra,del ,Campus,SN,SN,,,28805.0,6.0,17.0,,T00535,50101035.0,,2.0,B3,3.0,005-004,860.0,2.0,535-4,2.0,3.0,20030331.0,19860101.0,,471691.0,4484109.0,N,,,,,,,,,,,,,,,
,,,,,,ALVAREZ DE VILLAAMIL,,,,,,,,,,,,,,,,,,,,,,,,,,,,,,,,,,,,,,,,,,,,,,,par_10_5,5.0,Calle del Príncipe Carlos 13 B,40.48905,-3.65136,A,http://www.crtm.es,0.0,,Europe/Madrid,2.0
,,,,,,ALVAREZ DE VILLAAMIL,,,,,,,,,,,,,,,,,,,,,,,,,,,,,,,,,,,,,,,,,,,,,,,est_10_5,5.0,Calle del Príncipe Carlos 13 B,40.48905,-3.65136,A,http://www.crtm.es,1.0,,Europe/Madrid,2.0
,,,,,,ANTONIO SAURA,,,,,,,,,,,,,,,,,,,,,,,,,,,,,,,,,,,,,,,,,,,,,,,par_10_4,4.0,Calle del Príncipe Carlos 10,40.48546,-3.65353,A,http://www.crtm.es,0.0,,Europe/Madrid,2.0
,,,,,,ANTONIO SAURA,,,,,,,,,,,,,,,,,,,,,,,,,,,,,,,,,,,,,,,,,,,,,,,est_10_4,4.0,Calle del Príncipe Carlos 10,40.48546,-3.65353,A,http://www.crtm.es,1.0,,Europe/Madrid,2.0
8.0,12653.0,5_10,20170530.0,5.0,10.0,ASAMBLEA DE MADRID-ENTREVIAS,,S,10.0,70002.0,,93.0,145.0,U,28.0,79.0,7901.0,790101.0,06477,Calle,del,Vizconde de Arlessón,N,45,,,28053.0,13.0,23.0,131.0,T07913451,790101766.0,,3.0,A,2.0,079-13-372,372.0,20.0,559-4,2.0,3.0,20030331.0,19860101.0,,443407.0,4470542.0,N,,,,,,,,,,,,,,,
6.0,10589.0,5_11,20170530.0,5.0,11.0,ATOCHA,,I,11.0,18000.0,,90.0,54.0,U,28.0,79.0,7901.0,790101.0,01357,Avda,de la,Ciudad de Barcelona,N,2,B,,28007.0,2.0,83.0,27.0,T07910055,790101717.0,1.0,4.0,A,1.0,079-02-033,33.0,8.0,559-3,2.0,3.0,20030331.0,19860101.0,,441621.0,4473322.0,T,,,,,,,,,,,,,,,
10.0,10589.0,5_11,20170530.0,5.0,11.0,ATOCHA,,I,11.0,18000.0,,90.0,54.0,U,28.0,79.0,7901.0,790101.0,01357,Avda,de la,Ciudad de Barcelona,N,2,B,,28007.0,2.0,83.0,27.0,T07910055,790101717.0,1.0,4.0,A,1.0,079-02-033,33.0,8.0,559-3,2.0,3.0,20030331.0,19860101.0,,441621.0,4473322.0,T,,,,,,,,,,,,,,,
,,,,,,AVENIDA DE EUROPA,,,,,,,,,,,,,,,,,,,,,,,,,,,,,,,,,,,,,,,,,,,,,,,par_10_21,21.0,Avda   Comunidad de Madrid 3,40.43931,-3.79305,B1,http://www.crtm.es,0.0,,Europe/Madrid,2.0
,,,,,,AVENIDA DE EUROPA,,,,,,,,,,,,,,,,,,,,,,,,,,,,,,,,,,,,,,,,,,,,,,,est_10_21,21.0,Avda   Comunidad de Madrid 3,40.43931,-3.79305,B1,http://www.crtm.es,1.0,,Europe/Madrid,2.0
,,,,,,AVENIDA SISTEMA SOLAR,,,,,,,,,,,,,,,,,,,,,,,,,,,,,,,,,,,,,,,,,,,,,,,par_10_59,59.0,Avda del Sistema Solar 9,40.22343,-3.76072,B2,http://www.crtm.es,0.0,,Europe/Madrid,2.0
11.0,9860.0,5_12,20170530.0,5.0,12.0,AZUQUECA,,S,12.0,70105.0,,93.0,151.0,U,19.0,46.0,4601.0,460101.0,99999,Paseo,de la,Estacion,SN,SN,,,,1.0,1.0,,T0461,460101001.0,,,C1,, ,0.0,7.0,535-4,2.0,3.0,20030331.0,19860101.0,,477636.0,4490271.0,P,,,,,,,,,,,,,,,
,,,,,,Arturo Soria,,,,,,,,,,,,,,,,,,,,,,,,,,,,,,,,,,,,,,,,,,,,,,,acc_10_1_721,1.0,Calle de Arturo Soria 330,40.48023,-3.66684,,http://www.crtm.es,2.0,est_10_1,,0.0
,,,,,,Ascensor,,,,,,,,,,,,,,,,,,,,,,,,,,,,,,,,,,,,,,,,,,,,,,,acc_10_1_722,1.0,Calle de Arturo Soria 330,40.48015,-3.66694,,http://www.crtm.es,2.0,est_10_1,,0.0
,,,,,,Ascensor,,,,,,,,,,,,,,,,,,,,,,,,,,,,,,,,,,,,,,,,,,,,,,,acc_10_2_724,2.0,Cmno de la Fuente de la Mora 6,40.48566,-3.66302,,http://www.crtm.es,2.0,est_10_2,,0.0
,,,,,,Ascensor,,,,,,,,,,,,,,,,,,,,,,,,,,,,,,,,,,,,,,,,,,,,,,,acc_10_2_726,2.0,Calle de Dulce Chacón 15,40.48461,-3.66302,,http://www.crtm.es,2.0,est_10_2,,0.0
,,,,,,Ascensor,,,,,,,,,,,,,,,,,,,,,,,,,,,,,,,,,,,,,,,,,,,,,,,acc_10_3_728,3.0,Avda de Manoteras 49,40.48742,-3.66116,,http://www.crtm.es,2.0,est_10_3,,0.0
,,,,,,Ascensor,,,,,,,,,,,,,,,,,,,,,,,,,,,,,,,,,,,,,,,,,,,,,,,acc_10_6_720,6.0,Calle del Príncipe Carlos 48,40.49357,-3.6557,,http://www.crtm.es,2.0,est_10_6,,0.0
,,,,,,Ascensor,,,,,,,,,,,,,,,,,,,,,,,,,,,,,,,,,,,,,,,,,,,,,,,acc_10_7_730,7.0,Calle de María Tudor 15,40.49708,-3.65905,,http://www.crtm.es,2.0,est_10_7,,0.0
,,,,,,Ascensor,,,,,,,,,,,,,,,,,,,,,,,,,,,,,,,,,,,,,,,,,,,,,,,acc_10_14_809,14.0,Calle  Veritas 1,40.41567,-3.79264,,http://www.crtm.es,2.0,est_10_14,,0.0
,,,,,,Ascensor,,,,,,,,,,,,,,,,,,,,,,,,,,,,,,,,,,,,,,,,,,,,,,,acc_10_21_811,21.0,Avda  Comunidad de Madrid 3,40.43953,-3.79301,,http://www.crtm.es,2.0,est_10_21,,0.0
,,,,,,Ascensor,,,,,,,,,,,,,,,,,,,,,,,,,,,,,,,,,,,,,,,,,,,,,,,acc_10_22_813,22.0,Calle  Plutón 1,40.4446,-3.79116,,http://www.crtm.es,2.0,est_10_22,,0.0
,,,,,,Ascensor,,,,,,,,,,,,,,,,,,,,,,,,,,,,,,,,,,,,,,,,,,,,,,,acc_10_29_738,29.0,Avda del Montepríncipe 1,40.39777,-3.83592,,http://www.crtm.es,2.0,est_10_29,,0.0
,,,,,,Avda. Fuente de la Mora,,,,,,,,,,,,,,,,,,,,,,,,,,,,,,,,,,,,,,,,,,,,,,,acc_10_2_723,2.0,Cmno de la Fuente de la Mora 6,40.48561,-3.66318,,http://www.crtm.es,2.0,est_10_2,,0.0
,,,,,,Avda. Manoteras,,,,,,,,,,,,,,,,,,,,,,,,,,,,,,,,,,,,,,,,,,,,,,,acc_10_3_727,3.0,Avda de Manoteras 49,40.4874,-3.66105,,http://www.crtm.es,2.0,est_10_3,,0.0
,,,,,,Avenida de Europa,,,,,,,,,,,,,,,,,,,,,,,,,,,,,,,,,,,,,,,,,,,,,,,acc_10_21_810,21.0,Avda  Comunidad de Madrid 3,40.43914,-3.79309,,http://www.crtm.es,2.0,est_10_21,,0.0
,,,,,,BELGICA,,,,,,,,,,,,,,,,,,,,,,,,,,,,,,,,,,,,,,,,,,,,,,,par_10_18,18.0,Via de las Dos Castillas 5,40.43058,-3.80755,B1,http://www.crtm.es,0.0,,Europe/Madrid,2.0
,,,,,,BERNA,,,,,,,,,,,,,,,,,,,,,,,,,,,,,,,,,,,,,,,,,,,,,,,par_10_22,22.0,Calle   Plutón 1,40.44487,-3.7912,B1,http://www.crtm.es,0.0,,Europe/Madrid,2.0
,,,,,,BERNA,,,,,,,,,,,,,,,,,,,,,,,,,,,,,,,,,,,,,,,,,,,,,,,est_10_22,22.0,Calle   Plutón 1,40.44487,-3.7912,B1,http://www.crtm.es,1.0,,Europe/Madrid,2.0
,,,,,,BLASCO IBAÑEZ,,,,,,,,,,,,,,,,,,,,,,,,,,,,,,,,,,,,,,,,,,,,,,,par_10_6,6.0,Calle del Príncipe Carlos 50,40.49368,-3.65584,A,http://www.crtm.es,0.0,,Europe/Madrid,2.0
,,,,,,BLASCO IBAÑEZ,,,,,,,,,,,,,,,,,,,,,,,,,,,,,,,,,,,,,,,,,,,,,,,est_10_6,6.0,Calle del Príncipe Carlos 50,40.49368,-3.65584,A,http://www.crtm.es,1.0,,Europe/Madrid,2.0
,,,,,,BOADILLA CENTRO,,,,,,,,,,,,,,,,,,,,,,,,,,,,,,,,,,,,,,,,,,,,,,,par_10_34,34.0,Ctra de Boadilla-Majadahonda 40,40.40714,-3.88004,B2,http://www.crtm.es,0.0,,Europe/Madrid,2.0
,,,,,,BULEVAR SUR,,,,,,,,,,,,,,,,,,,,,,,,,,,,,,,,,,,,,,,,,,,,,,,par_10_55,55.0,Calle   San Antón 4,40.23473,-3.77236,B2,http://www.crtm.es,0.0,,Europe/Madrid,2.0
,,,,,,Berna,,,,,,,,,,,,,,,,,,,,,,,,,,,,,,,,,,,,,,,,,,,,,,,acc_10_22_812,22.0,Calle  Plutón 1,40.44476,-3.79116,,http://www.crtm.es,2.0,est_10_22,,0.0
,,,,,,CAMPUS DE SOMOSAGUAS,,,,,,,,,,,,,,,,,,,,,,,,,,,,,,,,,,,,,,,,,,,,,,,par_10_20,20.0,Avda del Cerro SN,40.43338,-3.79525,B1,http://www.crtm.es,0.0,,Europe/Madrid,2.0
,,,,,,CANTABRIA,,,,,,,,,,,,,,,,,,,,,,,,,,,,,,,,,,,,,,,,,,,,,,,par_10_32,32.0,Avda de Cantabria 3,40.39529,-3.86439,B2,http://www.crtm.es,0.0,,Europe/Madrid,2.0
10.0,13713.0,5_18,20170530.0,5.0,18.0,CHAMARTIN,Complejo Ferroviario,I,18.0,17000.0,,90.0,25.0,U,28.0,79.0,7901.0,790101.0,00073,Calle,de,Agustín de Foxá,N,40,,,28036.0,5.0,94.0,56.0,T0791996,790101150.0,1.0,1.0,A,1.0,079-05-086,86.0,11.0,559-2,2.0,3.0,20030331.0,19860101.0,,442257.0,4480589.0,T,,,,,,,,,,,,,,,
13.0,13713.0,5_18,20170530.0,5.0,18.0,CHAMARTIN,Complejo Ferroviario,I,18.0,17000.0,,90.0,25.0,U,28.0,79.0,7901.0,790101.0,00073,Calle,de,Agustín de Foxá,N,40,,,28036.0,5.0,94.0,56.0,T0791996,790101150.0,1.0,1.0,A,1.0,079-05-086,86.0,11.0,559-2,2.0,3.0,20030331.0,19860101.0,,442257.0,4480589.0,T,,,,,,,,,,,,,,,
,,,,,,CIUDAD DE LA IMAGEN,,,,,,,,,,,,,,,,,,,,,,,,,,,,,,,,,,,,,,,,,,,,,,,par_10_25,25.0,Calle   Juan de Orduña 4,40.39709,-3.78399,B1,http://www.crtm.es,0.0,,Europe/Madrid,2.0
,,,,,,CIUDAD DEL CINE,,,,,,,,,,,,,,,,,,,,,,,,,,,,,,,,,,,,,,,,,,,,,,,par_10_27,27.0,Calle   José Isbert 20,40.39455,-3.79557,B1,http://www.crtm.es,0.0,,Europe/Madrid,2.0
,,,,,,COCHERAS,,,,,,,,,,,,,,,,,,,,,,,,,,,,,,,,,,,,,,,,,,,,,,,par_10_39,39.0,Ctra de Boadilla del Monte 90,40.39688,-3.80386,B1,http://www.crtm.es,0.0,,Europe/Madrid,2.0
,,,,,,COLONIA DE LOS ANGELES,,,,,,,,,,,,,,,,,,,,,,,,,,,,,,,,,,,,,,,,,,,,,,,par_10_12,12.0,Ctra   M-502 (Carabanchel) 1900,40.40721,-3.7844,B1,http://www.crtm.es,0.0,,Europe/Madrid,2.0
,,,,,,COLONIA JARDIN,,,,,,,,,,,,,,,,,,,,,,,,,,,,,,,,,,,,,,,,,,,,,,,par_10_10,10.0,Calle de Arenas de San Pedro 2,40.39698,-3.77456,A,http://www.crtm.es,0.0,,Europe/Madrid,2.0
,,,,,,COLONIA JARDIN,,,,,,,,,,,,,,,,,,,,,,,,,,,,,,,,,,,,,,,,,,,,,,,est_10_10,10.0,Calle de Arenas de San Pedro 2,40.39698,-3.77456,A,http://www.crtm.es,1.0,,Europe/Madrid,2.0
,,,,,,COLONIA JARDIN,,,,,,,,,,,,,,,,,,,,,,,,,,,,,,,,,,,,,,,,,,,,,,,par_10_24,24.0,Calle de Arenas de San Pedro 2,40.39698,-3.77451,A,http://www.crtm.es,0.0,est_10_10,,2.0
15.0,11739.0,5_22,20170530.0,5.0,22.0,COSLADA,Con Trva de León Felipe,I,22.0,70108.0,,92.0,87.0,U,28.0,49.0,4901.0,490101.0,A0172,Calle,de,Luis Braille,N,8,,,28821.0,1.0,13.0,,T049291,490101010.0,8.0,2.0,B1,3.0,049-005,898.0,14.0,559-2,2.0,3.0,20030331.0,19860101.0,,452508.0,4475148.0,P,,,,,,,,,,,,,,,
,,,,,,Camino Fuente de la Mora,,,,,,,,,,,,,,,,,,,,,,,,,,,,,,,,,,,,,,,,,,,,,,,acc_10_2_725,2.0,Calle de Dulce Chacón 15,40.48461,-3.66308,,http://www.crtm.es,2.0,est_10_2,,0.0
,,,,,,Catalina de Austria,,,,,,,,,,,,,,,,,,,,,,,,,,,,,,,,,,,,,,,,,,,,,,,acc_10_7_731,7.0,Calle de María Tudor 15,40.49779,-3.6582,,http://www.crtm.es,2.0,est_10_7,,0.0
11.0,12375.0,5_25,20170530.0,5.0,25.0,DELICIAS,,S,25.0,18004.0,,92.0,181.0,U,28.0,79.0,7901.0,790101.0,05084,Calle,de,Ramírez de Prado,N,3,B,,28045.0,2.0,52.0,25.0,T07910929,790101617.0,,4.0,A,1.0,079-02-035,35.0,73.0,559-3,2.0,3.0,20030331.0,19860101.0,,441322.0,4472634.0,P,,,,,,,,,,,,,,,
,,,,,,DOS CASTILLAS,,,,,,,,,,,,,,,,,,,,,,,,,,,,,,,,,,,,,,,,,,,,,,,par_10_19,19.0,Via de las Dos Castillas 11 D,40.43253,-3.80162,B1,http://www.crtm.es,0.0,,Europe/Madrid,2.0
,,,,,,ESTACION DE ARAVACA,,,,,,,,,,,,,,,,,,,,,,,,,,,,,,,,,,,,,,,,,,,,,,,par_10_23,23.0,Calle de la Golondrina 104,40.44833,-3.78591,A,http://www.crtm.es,0.0,,Europe/Madrid,2.0
,,,,,,ESTRELLA POLAR NORTE,,,,,,,,,,,,,,,,,,,,,,,,,,,,,,,,,,,,,,,,,,,,,,,par_10_64,64.0,Avda de las Estrellas 14,40.23015,-3.75112,B2,http://www.crtm.es,0.0,,Europe/Madrid,2.0
,,,,,,ESTRELLA POLAR SUR,,,,,,,,,,,,,,,,,,,,,,,,,,,,,,,,,,,,,,,,,,,,,,,par_10_65,65.0,Avda de los Planetas 9,40.23072,-3.75383,B2,http://www.crtm.es,0.0,,Europe/Madrid,2.0
,,,,,,FERIAL DE BOADILLA,,,,,,,,,,,,,,,,,,,,,,,,,,,,,,,,,,,,,,,,,,,,,,,par_10_33,33.0,Ctra de Boadilla-Villaviciosa 13 A,40.40196,-3.87938,B2,http://www.crtm.es,0.0,,Europe/Madrid,2.0
7.0,13488.0,5_133,20170530.0,5.0,133.0,FUENTE DE LA MORA,,I,133.0,98003.0,,92.0,102.0,U,28.0,79.0,7901.0,790101.0,C0361,Calle,de,Dulce Chacón,N,15,,,28050.0,16.0,106.0,166.0,T0791209,790101154.0,4.0,7.0,A,1.0,079-16-436,436.0,,559-2,2.0,3.0,20110329.0,20110329.0,,443933.0,4481980.0,T,,,,,par_10_2,2.0,Calle de Dulce Chacón 15,40.48482,-3.66325,A,http://www.crtm.es,0.0,,Europe/Madrid,2.0
7.0,13488.0,5_133,20170530.0,5.0,133.0,FUENTE DE LA MORA,,I,133.0,98003.0,,92.0,102.0,U,28.0,79.0,7901.0,790101.0,C0361,Calle,de,Dulce Chacón,N,15,,,28050.0,16.0,106.0,166.0,T0791209,790101154.0,4.0,7.0,A,1.0,079-16-436,436.0,,559-2,2.0,3.0,20110329.0,20110329.0,,443933.0,4481980.0,T,,,,,est_10_2,2.0,Calle de Dulce Chacón 15,40.48482,-3.66325,A,http://www.crtm.es,1.0,,Europe/Madrid,2.0
9.0,10540.0,5_106,20170530.0,5.0,106.0,"GARENA, LA",,E,106.0,70111.0,,92.0,218.0,U,28.0,5.0,501.0,50101.0,07030,Calle, ,Fausto Elhuyar,N,6,,,28806.0,8.0,29.0,,T005907,50101050.0,,2.0,B3,3.0,005-008,864.0,,560-1,2.0,3.0,20040929.0,20040101.0,,466785.0,4481365.0,P,,,,,,,,,,,,,,,
1.0,12534.0,5_38,20170530.0,5.0,38.0,GUADALAJARA,Estación RENFE,S,38.0,70200.0,,93.0,224.0,U,19.0,130.0,13002.0,1300201.0,99999,Plaza,de la,Estación,SN,SN,,,,1.0,1.0,,T1301,1300201001.0,,,C2,, ,0.0,28.0,536-1,2.0,3.0,20030331.0,19860101.0,,484688.0,4499472.0,N,,,,,,,,,,,,,,,
,,,,,,IGLESIA CENTRO,,,,,,,,,,,,,,,,,,,,,,,,,,,,,,,,,,,,,,,,,,,,,,,par_10_54,54.0,Calle   Real 28,40.23771,-3.77059,B2,http://www.crtm.es,0.0,,Europe/Madrid,2.0
,,,,,,INFANTE DON LUIS,,,,,,,,,,,,,,,,,,,,,,,,,,,,,,,,,,,,,,,,,,,,,,,par_10_37,37.0,Avda del Siglo XXI 11,40.40595,-3.89741,B2,http://www.crtm.es,0.0,,Europe/Madrid,2.0
,,,,,,ISABEL II,,,,,,,,,,,,,,,,,,,,,,,,,,,,,,,,,,,,,,,,,,,,,,,par_10_57,57.0,Calle   Reyes Católicos 12,40.23114,-3.76508,B2,http://www.crtm.es,0.0,,Europe/Madrid,2.0
,,,,,,JAIME I NORTE,,,,,,,,,,,,,,,,,,,,,,,,,,,,,,,,,,,,,,,,,,,,,,,par_10_66,66.0,Avda de las Estrellas 2,40.23414,-3.74969,B2,http://www.crtm.es,0.0,,Europe/Madrid,2.0
,,,,,,JAIME I SUR,,,,,,,,,,,,,,,,,,,,,,,,,,,,,,,,,,,,,,,,,,,,,,,par_10_67,67.0,Avda de los Planetas 6,40.2347,-3.7524,B2,http://www.crtm.es,0.0,,Europe/Madrid,2.0
,,,,,,JOSE ISBERT,,,,,,,,,,,,,,,,,,,,,,,,,,,,,,,,,,,,,,,,,,,,,,,par_10_26,26.0,Calle   José Isbert 2,40.39525,-3.78993,B1,http://www.crtm.es,0.0,,Europe/Madrid,2.0
,,,,,,JULIO ROMERO DE TORRES,,,,,,,,,,,,,,,,,,,,,,,,,,,,,,,,,,,,,,,,,,,,,,,par_10_51,51.0,Calle   Julio Romero de Torres 2,40.24535,-3.76232,B2,http://www.crtm.es,0.0,,Europe/Madrid,2.0
,,,,,,LA BALLENA,,,,,,,,,,,,,,,,,,,,,,,,,,,,,,,,,,,,,,,,,,,,,,,par_10_52,52.0,Calle   Real 94,40.24599,-3.76635,B2,http://www.crtm.es,0.0,,Europe/Madrid,2.0
,,,,,,LAS TABLAS,,,,,,,,,,,,,,,,,,,,,,,,,,,,,,,,,,,,,,,,,,,,,,,par_10_9,9.0,Calle de Palas de Rey 30,40.50824,-3.66932,A,http://www.crtm.es,0.0,,Europe/Madrid,2.0
,,,,,,LAS TABLAS,,,,,,,,,,,,,,,,,,,,,,,,,,,,,,,,,,,,,,,,,,,,,,,est_10_9,9.0,Calle de Palas de Rey 30,40.50824,-3.66932,A,http://www.crtm.es,1.0,,Europe/Madrid,2.0
,,,,,,MARIA TUDOR,,,,,,,,,,,,,,,,,,,,,,,,,,,,,,,,,,,,,,,,,,,,,,,par_10_7,7.0,Calle de María Tudor 15,40.49717,-3.65889,A,http://www.crtm.es,0.0,,Europe/Madrid,2.0
,,,,,,MARIA TUDOR,,,,,,,,,,,,,,,,,,,,,,,,,,,,,,,,,,,,,,,,,,,,,,,est_10_7,7.0,Calle de María Tudor 15,40.49717,-3.65889,A,http://www.crtm.es,1.0,,Europe/Madrid,2.0
2.0,9861.0,5_45,20170530.0,5.0,45.0,MECO,,S,45.0,70104.0,,93.0,271.0,U,28.0,83.0,8301.0,830101.0,10097,Trva,de la,Calera,N,3,,,28880.0,1.0,1.0,,T083249,830101001.0,,2.0,C1,4.0,083-001,1130.0,43.0,535-4,2.0,3.0,20030331.0,19860101.0,,474816.0,4487348.0,N,,,,,,,,,,,,,,,
1.0,12744.0,5_46,20170530.0,5.0,46.0,MENDEZ ALVARO,,I,46.0,35701.0,,90.0,13.0,U,28.0,79.0,7901.0,790101.0,11713,Calle,del,Ombu,N,16,,,28045.0,2.0,83.0,27.0,T07911253,790101720.0,1.0,4.0,A,1.0,079-02-044,44.0,44.0,559-4,2.0,3.0,20030331.0,19860101.0,,442564.0,4472070.0,P,,,,,,,,,,,,,,,
,,,,,,MONTEPRINCIPE,,,,,,,,,,,,,,,,,,,,,,,,,,,,,,,,,,,,,,,,,,,,,,,par_10_29,29.0,Avda del Montepríncipe 1,40.39792,-3.8358,B1,http://www.crtm.es,0.0,,Europe/Madrid,2.0
,,,,,,MONTEPRINCIPE,,,,,,,,,,,,,,,,,,,,,,,,,,,,,,,,,,,,,,,,,,,,,,,est_10_29,29.0,Avda del Montepríncipe 1,40.39792,-3.8358,B1,http://www.crtm.es,1.0,,Europe/Madrid,2.0
,,,,,,María Tudor,,,,,,,,,,,,,,,,,,,,,,,,,,,,,,,,,,,,,,,,,,,,,,,acc_10_7_729,7.0,Calle de María Tudor 15,40.49701,-3.65907,,http://www.crtm.es,2.0,est_10_7,,0.0
,,,,,,Montepríncipe,,,,,,,,,,,,,,,,,,,,,,,,,,,,,,,,,,,,,,,,,,,,,,,acc_10_29_739,29.0,Avda del Montepríncipe 1,40.39787,-3.83582,,http://www.crtm.es,2.0,est_10_29,,0.0
,,,,,,NUEVO MUNDO,,,,,,,,,,,,,,,,,,,,,,,,,,,,,,,,,,,,,,,,,,,,,,,par_10_35,35.0,Avda del Nuevo Mundo 6 B,40.40564,-3.88576,B2,http://www.crtm.es,0.0,,Europe/Madrid,2.0
2.0,10869.0,5_51,20170530.0,5.0,51.0,NUEVOS MINISTERIOS,"Personal de atención / taquillas: SI
Parking disuasorio: SI",I,51.0,18002.0,,90.0,71.0,U,28.0,79.0,7901.0,790101.0,05080,Calle,de,Raimundo Fernández Villaverde,N,67,,,28046.0,6.0,29.0,62.0,T0795339,790101267.0,1.0,6.0,A,1.0,079-06-120,120.0,47.0,559-1,1.0,3.0,20030331.0,19860101.0,,441398.0,4477767.0,T,,,,,,,,,,,,,,,
3.0,10869.0,5_51,20170530.0,5.0,51.0,NUEVOS MINISTERIOS,"Personal de atención / taquillas: SI
Parking disuasorio: SI",I,51.0,18002.0,,90.0,71.0,U,28.0,79.0,7901.0,790101.0,05080,Calle,de,Raimundo Fernández Villaverde,N,67,,,28046.0,6.0,29.0,62.0,T0795339,790101267.0,1.0,6.0,A,1.0,079-06-120,120.0,47.0,559-1,1.0,3.0,20030331.0,19860101.0,,441398.0,4477767.0,T,,,,,,,,,,,,,,,
,,,,,,PALAS DE REY,,,,,,,,,,,,,,,,,,,,,,,,,,,,,,,,,,,,,,,,,,,,,,,par_10_8,8.0,Calle de Palas de Rey 18 A,40.50544,-3.66507,A,http://www.crtm.es,0.0,,Europe/Madrid,2.0
,,,,,,PALAS DE REY,,,,,,,,,,,,,,,,,,,,,,,,,,,,,,,,,,,,,,,,,,,,,,,est_10_8,8.0,Calle de Palas de Rey 18 A,40.50544,-3.66507,A,http://www.crtm.es,1.0,,Europe/Madrid,2.0
,,,,,,PARLA CENTRO - BULEVAR NORTE,,,,,,,,,,,,,,,,,,,,,,,,,,,,,,,,,,,,,,,,,,,,,,,par_10_53,53.0,Calle  Real 81,40.24079,-3.76954,B2,http://www.crtm.es,0.0,,Europe/Madrid,2.0
,,,,,,PARQUE PARLA ESTE,,,,,,,,,,,,,,,,,,,,,,,,,,,,,,,,,,,,,,,,,,,,,,,par_10_58,58.0,Avda del Sistema Solar 5,40.22816,-3.76147,B2,http://www.crtm.es,0.0,,Europe/Madrid,2.0
,,,,,,PINAR DE CHAMARTIN,,,,,,,,,,,,,,,,,,,,,,,,,,,,,,,,,,,,,,,,,,,,,,,par_10_1,1.0,Calle de Arturo Soria 330,40.48014,-3.66684,A,http://www.crtm.es,0.0,,Europe/Madrid,2.0
,,,,,,PINAR DE CHAMARTIN,,,,,,,,,,,,,,,,,,,,,,,,,,,,,,,,,,,,,,,,,,,,,,,est_10_1,1.0,Calle de Arturo Soria 330,40.48014,-3.66684,A,http://www.crtm.es,1.0,,Europe/Madrid,2.0
3.0,12376.0,5_57,20170530.0,5.0,57.0,PIRAMIDES,,I,57.0,18005.0,,92.0,85.0,U,28.0,79.0,7901.0,790101.0,11748,Paseo,del,Doctor Vallejo Nágera,N,37,,,28005.0,2.0,87.0,22.0,T07910617,790101569.0,1.0,4.0,A,1.0,079-02-027,27.0,75.0,559-3,2.0,3.0,20030331.0,19860101.0,,439748.0,4472893.0,P,,,,,,,,,,,,,,,
,,,,,,PLAZA DE TOROS,,,,,,,,,,,,,,,,,,,,,,,,,,,,,,,,,,,,,,,,,,,,,,,par_10_50,50.0,Ctra   M-408 (Parla a Pinto) 1600,40.2441,-3.75756,B2,http://www.crtm.es,0.0,,Europe/Madrid,2.0
,,,,,,POLIGONO INDUSTRIAL CIUDAD DE PARLA,,,,,,,,,,,,,,,,,,,,,,,,,,,,,,,,,,,,,,,,,,,,,,,par_10_68,68.0,Calle   Berlín 61,40.23867,-3.75045,B2,http://www.crtm.es,0.0,,Europe/Madrid,2.0
4.0,10860.0,5_59,20170530.0,5.0,59.0,"POZO, EL",,S,59.0,70003.0,,91.0,48.0,U,28.0,79.0,7901.0,790101.0,01987,Avda,de,Entrevías,N,140,,,28053.0,13.0,2.0,131.0,T07914302,790101771.0,3.0,3.0,A,2.0,079-13-374,374.0,74.0,559-4,2.0,3.0,20030331.0,19860101.0,,444402.0,4469894.0,N,,,,,,,,,,,,,,,
,,,,,,POZUELO OESTE,,,,,,,,,,,,,,,,,,,,,,,,,,,,,,,,,,,,,,,,,,,,,,,par_10_16,16.0,Ctra   Carabanchel (M-502) 63,40.42307,-3.80447,B1,http://www.crtm.es,0.0,,Europe/Madrid,2.0
,,,,,,PRADO DE LA VEGA,,,,,,,,,,,,,,,,,,,,,,,,,,,,,,,,,,,,,,,,,,,,,,,par_10_11,11.0,Ctra   M-502 (Carabanchel) 1200,40.4023,-3.78121,B1,http://www.crtm.es,0.0,,Europe/Madrid,2.0
,,,,,,PRADO DEL ESPINO,,,,,,,,,,,,,,,,,,,,,,,,,,,,,,,,,,,,,,,,,,,,,,,par_10_31,31.0,Calle   Labradores 1,40.39502,-3.84774,B2,http://www.crtm.es,0.0,,Europe/Madrid,2.0
,,,,,,PRADO DEL REY,,,,,,,,,,,,,,,,,,,,,,,,,,,,,,,,,,,,,,,,,,,,,,,par_10_13,13.0,Avda   Radio y Televisión 4,40.41047,-3.78748,B1,http://www.crtm.es,0.0,,Europe/Madrid,2.0
4.0,13438.0,5_61,20170530.0,5.0,61.0,PRINCIPE PIO,Con Vía Ferrocarril,I,61.0,10000.0,,90.0,18.0,U,28.0,79.0,7901.0,790101.0,02239,Paseo,de la,Florida,N,2,,,28008.0,9.0,10.0,91.0,T0798149,790101315.0,1.0,6.0,A,1.0,079-09-230,230.0,54.0,559-1,2.0,3.0,20030331.0,19860101.0,,439007.0,4474950.0,N,,,,,,,,,,,,,,,
,,,,,,PUERTA DE BOADILLA,,,,,,,,,,,,,,,,,,,,,,,,,,,,,,,,,,,,,,,,,,,,,,,par_10_38,38.0,Avda   Siglo XXI SN,40.40777,-3.90378,B2,http://www.crtm.es,0.0,,Europe/Madrid,2.0
,,,,,,Palas de Rey,,,,,,,,,,,,,,,,,,,,,,,,,,,,,,,,,,,,,,,,,,,,,,,acc_10_8_734,8.0,Calle de Palas de Rey SN,40.50546,-3.66501,,http://www.crtm.es,2.0,est_10_8,,0.0
,,,,,,Palas de Rey,,,,,,,,,,,,,,,,,,,,,,,,,,,,,,,,,,,,,,,,,,,,,,,acc_10_9_735,9.0,Calle de Palas de Rey SN,40.50808,-3.66884,,http://www.crtm.es,2.0,est_10_9,,0.0
,,,,,,Príncipe Carlos,,,,,,,,,,,,,,,,,,,,,,,,,,,,,,,,,,,,,,,,,,,,,,,acc_10_4_732,4.0,Calle del Príncipe Carlos 10,40.48552,-3.6535,,http://www.crtm.es,2.0,est_10_4,,0.0
,,,,,,Príncipe Carlos,,,,,,,,,,,,,,,,,,,,,,,,,,,,,,,,,,,,,,,,,,,,,,,acc_10_5_733,5.0,Calle del Príncipe Carlos 13 B,40.48903,-3.65126,,http://www.crtm.es,2.0,est_10_5,,0.0
,,,,,,Príncipe Carlos,,,,,,,,,,,,,,,,,,,,,,,,,,,,,,,,,,,,,,,,,,,,,,,acc_10_6_719,6.0,Calle del Príncipe Carlos 48,40.49354,-3.65563,,http://www.crtm.es,2.0,est_10_6,,0.0
5.0,9062.0,5_65,20170530.0,5.0,65.0,RECOLETOS,,I,65.0,18001.0,,92.0,67.0,U,28.0,79.0,7901.0,790101.0,00985,Paseo,de,Recoletos,N,20,,,28001.0,4.0,5.0,41.0,T0798458,790101325.0,1.0,1.0,A,1.0,079-04-070,70.0,57.0,559-1,2.0,3.0,20030331.0,19860101.0,,441504.0,4475190.0,N,,,,,,,,,,,,,,,
5.0,9062.0,5_65,20170530.0,5.0,65.0,RECOLETOS,,I,65.0,18001.0,,92.0,67.0,U,28.0,79.0,7901.0,790101.0,00985,Paseo,de,Recoletos,N,20,,,28001.0,4.0,5.0,41.0,T0798458,790101325.0,1.0,1.0,A,1.0,079-04-070,70.0,57.0,559-1,2.0,3.0,20030331.0,19860101.0,,441504.0,4475190.0,N,,,,,,,,,,,,,,,
,,,,,,RETAMARES,,,,,,,,,,,,,,,,,,,,,,,,,,,,,,,,,,,,,,,,,,,,,,,par_10_28,28.0,Ctra   Boadilla-Carabanchel (M-511) SN,40.39872,-3.81675,B1,http://www.crtm.es,0.0,,Europe/Madrid,2.0
,,,,,,REYES CATOLICOS,,,,,,,,,,,,,,,,,,,,,,,,,,,,,,,,,,,,,,,,,,,,,,,par_10_56,56.0,Calle   Reyes Católicos 37,40.23141,-3.77,B2,http://www.crtm.es,0.0,,Europe/Madrid,2.0
6.0,10541.0,5_71,20170530.0,5.0,71.0,SAN FERNANDO,Con Avda de San Pablo,S,71.0,70101.0,,93.0,333.0,U,28.0,49.0,4901.0,490101.0,10029,Calle, ,Estación de ferrocarril,N,6,,,28823.0,4.0,2.0,,T04913,490101019.0,,2.0,B1,3.0,049-003,896.0,59.0,559-2,2.0,3.0,20030331.0,19860101.0,,454836.0,4477235.0,N,,,,,,,,,,,,,,,
7.0,12658.0,5_75,20170530.0,5.0,75.0,SANTA EUGENIA,,S,75.0,70109.0,,93.0,340.0,U,28.0,79.0,7901.0,790101.0,10280,Avda,de,Santa Eugenia,N,2,,,28031.0,18.0,39.0,182.0,T07912787,790101788.0,,3.0,A,2.0,079-18-504,504.0,62.0,559-4,2.0,3.0,20030331.0,19860101.0,,448415.0,4471096.0,N,,,,,,,,,,,,,,,
,,,,,,SIGLO XXI,,,,,,,,,,,,,,,,,,,,,,,,,,,,,,,,,,,,,,,,,,,,,,,par_10_36,36.0,Avda del Siglo XXI 1,40.40513,-3.89263,B2,http://www.crtm.es,0.0,,Europe/Madrid,2.0
,,,,,,SOMOSAGUAS CENTRO,,,,,,,,,,,,,,,,,,,,,,,,,,,,,,,,,,,,,,,,,,,,,,,par_10_15,15.0,Ctra   Carabanchel (M-502) 36,40.41937,-3.79874,B1,http://www.crtm.es,0.0,,Europe/Madrid,2.0
,,,,,,SOMOSAGUAS SUR,,,,,,,,,,,,,,,,,,,,,,,,,,,,,,,,,,,,,,,,,,,,,,,par_10_14,14.0,Calle   Veritas 4,40.41536,-3.79252,B1,http://www.crtm.es,0.0,,Europe/Madrid,2.0
,,,,,,SOMOSAGUAS SUR,,,,,,,,,,,,,,,,,,,,,,,,,,,,,,,,,,,,,,,,,,,,,,,est_10_14,14.0,Calle   Veritas 4,40.41536,-3.79252,B1,http://www.crtm.es,1.0,,Europe/Madrid,2.0
12.0,34602.0,5_143,20170530.0,5.0,143.0,SOTO DEL HENARES,,I,143.0,70112.0,,93.0,520.0,U,28.0,148.0,14801.0,,C0049,Paseo,de la,Democracia,N,17,,,28850.0,2.0,19.0,,T1488824,,,2.0,B2,2.0,148-013,944.0,,560-1,2.0,3.0,20150828.0,20150828.0,,462693.0,4479508.0,T,,,,,,,,,,,,,,,
,,,,,,Somosaguas Sur,,,,,,,,,,,,,,,,,,,,,,,,,,,,,,,,,,,,,,,,,,,,,,,acc_10_14_808,14.0,Calle  Veritas 1,40.41499,-3.79262,,http://www.crtm.es,2.0,est_10_14,,0.0
,,,,,,TIERRA NORTE,,,,,,,,,,,,,,,,,,,,,,,,,,,,,,,,,,,,,,,,,,,,,,,par_10_60,60.0,Avda de las Estrellas 34,40.22195,-3.75406,B2,http://www.crtm.es,0.0,,Europe/Madrid,2.0
,,,,,,TIERRA SUR,,,,,,,,,,,,,,,,,,,,,,,,,,,,,,,,,,,,,,,,,,,,,,,par_10_61,61.0,Avda de los Planetas 31,40.22254,-3.75675,B2,http://www.crtm.es,0.0,,Europe/Madrid,2.0
17.0,12674.0,5_81,20170530.0,5.0,81.0,TORREJON DE ARDOZ,Con Calle Pamplona,S,81.0,70102.0,,93.0,351.0,U,28.0,148.0,14801.0,1480101.0,01866,Paseo, ,Estación,N,3,,,28850.0,3.0,5.0,,T148376,1480101026.0,,2.0,B2,3.0,148-009,940.0,63.0,560-1,2.0,3.0,20030331.0,19860101.0,,459425.0,4478534.0,N,,,,,,,,,,,,,,,
9.0,35534.0,5_144,20170530.0,5.0,144.0,VALDEBEBAS,,I,144.0,98304.0,,,,U,28.0,79.0,7901.0,,99999,Avda,de las,Fuerzas Armadas,N,322,,,28055.0,21.0,28.0,214.0,T079917433,,,2.0,A,1.0,079-21-574,574.0,,559-2,2.0,3.0,20151215.0,20151215.0,,447864.0,4481680.0,T,,,,,,,,,,,,,,,
18.0,10862.0,5_87,20170530.0,5.0,87.0,VALLECAS,,E,87.0,70005.0,,91.0,49.0,U,28.0,79.0,7901.0,790101.0,09429,Avda,de la,Democracia,N,1,,,28031.0,13.0,128.0,134.0,T07913501,790101776.0,3.0,3.0,A,2.0,079-13-350,350.0,67.0,559-4,2.0,3.0,20030331.0,19860101.0,,447096.0,4470575.0,P,,,,,,,,,,,,,,,
,,,,,,VENTORRO DEL CANO,,,,,,,,,,,,,,,,,,,,,,,,,,,,,,,,,,,,,,,,,,,,,,,par_10_30,30.0,Avda del Tranvía SN,40.3942,-3.83811,B1,http://www.crtm.es,0.0,,Europe/Madrid,2.0
,,,,,,VENUS NORTE,,,,,,,,,,,,,,,,,,,,,,,,,,,,,,,,,,,,,,,,,,,,,,,par_10_62,62.0,Avda de las Estrellas 49,40.22627,-3.75251,B2,http://www.crtm.es,0.0,,Europe/Madrid,2.0
,,,,,,VENUS SUR,,,,,,,,,,,,,,,,,,,,,,,,,,,,,,,,,,,,,,,,,,,,,,,par_10_63,63.0,Avda de los Planetas 32,40.22683,-3.75522,B2,http://www.crtm.es,0.0,,Europe/Madrid,2.0
19.0,13715.0,5_90,20170530.0,5.0,90.0,VICALVARO,,I,90.0,70100.0,,91.0,39.0,U,28.0,79.0,7901.0,790101.0,08410,Calle,de,San Cipriano,N,85,,,28032.0,19.0,47.0,191.0,T07910783,790101895.0,4.0,3.0,A,2.0,079-19-531,531.0,68.0,559-4,1.0,3.0,20030331.0,19860101.0,,449540.0,4472679.0,N,,,,,,,,,,,,,,,
,,,,,,VIRGEN DEL CORTIJO,,,,,,,,,,,,,,,,,,,,,,,,,,,,,,,,,,,,,,,,,,,,,,,par_10_3,3.0,Avda de Manoteras 54,40.48734,-3.66098,A,http://www.crtm.es,0.0,,Europe/Madrid,2.0
,,,,,,VIRGEN DEL CORTIJO,,,,,,,,,,,,,,,,,,,,,,,,,,,,,,,,,,,,,,,,,,,,,,,est_10_3,3.0,Avda de Manoteras 54,40.48734,-3.66098,A,http://www.crtm.es,1.0,,Europe/Madrid,2.0
1.0,13554.0,5_33,20170530.0,5.0,33.0,GALAPAGAR-LA NAVATA,,S,33.0,10104.0,,93.0,217.0,U,28.0,61.0,6108.0,610801.0,A0253,Ctra,de,Galapagar-La Navata,N,154,,,28420.0,1.0,7.0,,T061192,610801019.0,,6.0,B3,3.0,061-002,972.0,25.0,533-2,2.0,3.0,20030331.0,19860101.0,,417036.0,4495038.0,N,,,,,,,,,,,,,,,
2.0,12382.0,5_35,20170530.0,5.0,35.0,GETAFE INDUSTRIAL,Frente al nº 13,S,35.0,60102.0,,93.0,219.0,U,28.0,65.0,6503.0,650301.0,A0408,Paseo,de,John Lennon,N,15400,,,28906.0,4.0,12.0,,T065648,650301016.0,,4.0,B1,3.0,065-021,725.0,26.0,582-1,2.0,3.0,20030331.0,19860101.0,,439971.0,4462111.0,N,,,,,,,,,,,,,,,
3.0,10822.0,5_44,20170530.0,5.0,44.0,"MATAS, LAS",,S,44.0,10101.0,,93.0,270.0,U,28.0,127.0,12715.0,1271501.0,02753,Plaza,del,Ferrocarril,N,1,,,28290.0,1.0,8.0,,T127142,1271501021.0,,6.0,B2,3.0,127-002,1011.0,33.0,533-4,2.0,3.0,20030331.0,19860101.0,,424176.0,4489678.0,P,,,,,,,,,,,,,,,
4.0,10869.0,5_51,20170530.0,5.0,51.0,NUEVOS MINISTERIOS,"Personal de atención / taquillas: SI
Parking disuasorio: SI",I,51.0,18002.0,,90.0,71.0,U,28.0,79.0,7901.0,790101.0,05080,Calle,de,Raimundo Fernández Villaverde,N,67,,,28046.0,6.0,29.0,62.0,T0795339,790101267.0,1.0,6.0,A,1.0,079-06-120,120.0,47.0,559-1,1.0,3.0,20030331.0,19860101.0,,441398.0,4477767.0,T,,,,,,,,,,,,,,,
5.0,10823.0,5_55,20170530.0,5.0,55.0,PINAR DE LAS ROZAS,,S,55.0,10100.0,,93.0,297.0,U,28.0,127.0,12715.0,1271501.0,02710,Lugar, ,Estación Ferrocarril El Pinar,N,1,,,28232.0,1.0,32.0,,T127387,1271501018.0,,6.0,B2,3.0,127-006,1015.0,50.0,533-4,2.0,3.0,20030331.0,19860101.0,,425385.0,4486311.0,N,,,,,,,,,,,,,,,
6.0,12381.0,5_56,20170530.0,5.0,56.0,PINTO,,S,56.0,60103.0,,93.0,299.0,U,28.0,113.0,11301.0,1130102.0,A0117,Calle,del,Ferrocarril,N,4,,,28320.0,1.0,3.0,,T113204,1130102006.0,,4.0,B2,3.0,113-005,835.0,51.0,582-3,2.0,3.0,20030331.0,19860101.0,,440252.0,4455150.0,N,,,,,,,,,,,,,,,
7.0,11738.0,5_58,20170530.0,5.0,58.0,PITIS,,S,58.0,97100.0,,93.0,86.0,U,28.0,79.0,7901.0,790199.0,45576,Ctra,a la,Estación de Pitis,N,19,,,28035.0,8.0,139.0,87.0,T079764,790199999.0,2.0,7.0,A,2.0,079-08-158,158.0,52.0,559-1,2.0,3.0,20030331.0,19860101.0,,438601.0,4483172.0,P,,,,,,,,,,,,,,,
8.0,12539.0,5_64,20170530.0,5.0,64.0,RAMON Y CAJAL,,S,64.0,97201.0,,92.0,311.0,U,28.0,79.0,7901.0,790101.0,08431,Calle,de,San Modesto,N,50,,,28034.0,8.0,111.0,86.0,T0791097,790101069.0,,7.0,A,2.0,079-08-187,187.0,56.0,559-1,2.0,3.0,20030331.0,19860101.0,,441231.0,4482389.0,N,,,,,,,,,,,,,,,
9.0,12550.0,5_67,20170530.0,5.0,67.0,ROBLEDO DE CHAVELA,,S,67.0,10205.0,,93.0,320.0,U,28.0,125.0,12502.0,1250201.0,00210,Calle,de,Francisco Quevedo,N,295,,,28294.0,1.0,1.0,,T12515,1250201009.0,,6.0,C2,4.0,125-001,1166.0,93.0,532-4,2.0,3.0,20030331.0,19860101.0,,394502.0,4486515.0,T,,,,,,,,,,,,,,,
10.0,1257.0,5_69,20170530.0,5.0,69.0,SAN CRISTOBAL DE LOS ANGELES,,S,69.0,60107.0,,93.0,329.0,U,28.0,79.0,7901.0,790101.0,09529,Calle,de,Paterna,N,17,,,28021.0,17.0,44.0,172.0,T07915970,790101859.0,,4.0,A,2.0,079-17-488,488.0,37.0,559-4,2.0,3.0,20030331.0,19860101.0,,442029.0,4466189.0,T,,,,,,,,,,,,,,,
11.0,1248.0,5_70,20170530.0,5.0,70.0,SAN CRISTOBAL INDUSTRIAL,Ndup-E,S,70.0,60101.0,,93.0,330.0,U,28.0,79.0,7901.0,790101.0,A0043,Acces,a la,Colonia Marconi,N,11,,,28021.0,17.0,106.0,171.0,T07916155,790101856.0,,4.0,A,2.0,079-17-485,485.0,58.0,582-1,2.0,3.0,20030331.0,19860101.0,,440757.0,4465039.0,P,,,,,,,,,,,,,,,
12.0,13354.0,5_74,20170530.0,5.0,74.0,SAN YAGO,,S,74.0,10201.0,,93.0,339.0,U,28.0,61.0,6106.0,610601.0,A0561,Avda, ,Saltos del Sil,N,1,,,28292.0,1.0,9.0,,T06186,610601001.0,,6.0,C1,4.0,061-001,971.0,61.0,533-1,2.0,3.0,20030331.0,19860101.0,,412892.0,4497056.0,N,,,,,,,,,,,,,,,
13.0,12548.0,5_76,20170530.0,5.0,76.0,SANTA MARIA DE LA ALAMEDA,,S,76.0,10206.0,,93.0,341.0,U,28.0,135.0,13501.0,1350101.0,A0055,Calle, ,Doce de Octubre,N,20,,,28296.0,1.0,1.0,,T135128,1350101001.0,,6.0,C2,4.0,135-001,1169.0,94.0,532-4,2.0,3.0,20030331.0,19860101.0,,392663.0,4491886.0,T,,,,,,,,,,,,,,,
14.0,13648.0,5_103,20170530.0,5.0,103.0,"CASAR, EL",,S,103.0,60109.0,,92.0,93.0,U,28.0,65.0,6503.0,650301.0,A0161,Avda,del,Casar,N,2,,,28903.0,2.0,20.0,,T065223,650301045.0,7.0,4.0,B1,2.0,065-005,709.0,,582-1,2.0,3.0,20030421.0,20030101.0,,439800.0,4463554.0,T,,,,,,,,,,,,,,,
15.0,10589.0,5_11,20170530.0,5.0,11.0,ATOCHA,,I,11.0,18000.0,,90.0,54.0,U,28.0,79.0,7901.0,790101.0,01357,Avda,de la,Ciudad de Barcelona,N,2,B,,28007.0,2.0,83.0,27.0,T07910055,790101717.0,1.0,4.0,A,1.0,079-02-033,33.0,8.0,559-3,2.0,3.0,20030331.0,19860101.0,,441621.0,4473322.0,T,,,,,,,,,,,,,,,
16.0,12215.0,5_122,20170530.0,5.0,122.0,SOL,,I,122.0,18101.0,,90.0,58.0,U,28.0,79.0,7901.0,790101.0,04980,Plaza,de la,Puerta del Sol,N,6,,,28013.0,1.0,119.0,16.0,T0799116,790101560.0,,5.0,A,1.0,079-01-014,14.0,,solape,2.0,3.0,20090625.0,20090625.0,,440460.0,4474469.0,T,,,,,,,,,,,,,,,
17.0,13713.0,5_18,20170530.0,5.0,18.0,CHAMARTIN,Complejo Ferroviario,I,18.0,17000.0,,90.0,25.0,U,28.0,79.0,7901.0,790101.0,00073,Calle,de,Agustín de Foxá,N,40,,,28036.0,5.0,94.0,56.0,T0791996,790101150.0,1.0,1.0,A,1.0,079-05-086,86.0,11.0,559-2,2.0,3.0,20030331.0,19860101.0,,442257.0,4480589.0,T,,,,,,,,,,,,,,,
18.0,12379.0,5_19,20170530.0,5.0,19.0,CIEMPOZUELOS,,S,19.0,60105.0,,93.0,171.0,U,28.0,40.0,4001.0,400101.0,A0157,Avda,de,San Juan de Dios,N,7,,,28350.0,1.0,1.0,,T040131,400101009.0,,4.0,B3,3.0,040-003,675.0,12.0,605-2,2.0,3.0,20030331.0,19860101.0,,448159.0,4445798.0,N,,,,,,,,,,,,,,,
19.0,13620.0,5_29,20170530.0,5.0,29.0,"ESCORIAL, EL",,S,29.0,10203.0,,93.0,206.0,U,28.0,54.0,5404.0,540401.0,00674,Calle, ,Estación Renfe,N,5,,,28280.0,2.0,2.0,,T054239,540401006.0,,6.0,C1,4.0,054-001,1157.0,17.0,533-1,2.0,3.0,20030331.0,19860101.0,,404283.0,4493543.0,P,,,,,,,,,,,,,,,
20.0,12377.0,5_8,20170530.0,5.0,8.0,ARANJUEZ,,S,8.0,60200.0,,93.0,140.0,U,28.0,13.0,1302.0,130201.0,A0083,Calle,de la,Estación,N,5,,,28300.0,4.0,3.0,,T013242,130201008.0,,4.0,C1,4.0,013-001,1089.0,5.0,605-4,2.0,3.0,20030331.0,19860101.0,,447358.0,4432014.0,N,,,,,,,,,,,,,,,
21.0,10648.0,5_82,20170530.0,5.0,82.0,TORRELODONES,,S,82.0,10103.0,,93.0,352.0,U,28.0,152.0,15204.0,1520401.0,00474,Plaza,de,Salvador Sánchez Frascuelo,N,6,,,28250.0,1.0,5.0,,T152194,1520401002.0,,6.0,B3,3.0,152-001,1020.0,64.0,533-4,2.0,3.0,20030331.0,19860101.0,,419147.0,4492172.0,P,,,,,,,,,,,,,,,
22.0,12380.0,5_86,20170530.0,5.0,86.0,VALDEMORO,,S,86.0,60104.0,,92.0,364.0,U,28.0,161.0,16101.0,1610101.0,00601,Paseo,de la,Estación,N,86,,,28343.0,1.0,10.0,,T1611839,,7.0,4.0,B3,2.0,161-006,849.0,66.0,582-4,2.0,3.0,20030331.0,19860101.0,,443524.0,4449936.0,T,,,,,,,,,,,,,,,
23.0,5786.0,5_91,20170530.0,5.0,91.0,VILLALBA,,S,91.0,10200.0,,92.0,371.0,U,28.0,47.0,4705.0,470501.0,A0107,Plaza,de la,Estación,N,1,,,28400.0,1.0,11.0,,T047414,470501006.0,,6.0,B3,3.0,047-006,968.0,69.0,533-2,2.0,3.0,20030331.0,19860101.0,,414849.0,4497977.0,P,,,,,,,,,,,,,,,
24.0,7907.0,5_93,20170530.0,5.0,93.0,VILLAVERDE BAJO,,S,93.0,60100.0,,92.0,23.0,U,28.0,79.0,7901.0,790101.0,02052,Paseo,de la,Estación,N,2,,,28021.0,17.0,57.0,174.0,T07915541,790101839.0,3.0,4.0,A,2.0,079-17-482,482.0,71.0,559-4,2.0,3.0,20030331.0,19860101.0,,442026.0,4467330.0,T,,,,,,,,,,,,,,,
25.0,13523.0,5_94,20170530.0,5.0,94.0,ZARZALEJO,,S,94.0,10204.0,,93.0,375.0,U,28.0,183.0,18301.0,1830101.0,A0041,Calle,del,Ferrocarril,SN,13,,,28293.0,1.0,1.0,,T183140,1830101001.0,,5.0,C2,4.0,183-001,1172.0,92.0,533-3,2.0,3.0,20030331.0,19860101.0,,402029.0,4488404.0,T,,,,,,,,,,,,,,,
26.0,12554.0,5_96,20170530.0,5.0,96.0,"ZORRERAS, LAS",,S,96.0,10202.0,,93.0,376.0,U,28.0,54.0,5406.0,540601.0,00797,Calle, ,Alcudia,N,26,,,28292.0,1.0,4.0,,T054116,540601010.0,,6.0,C1,4.0,054-002,1158.0,35.0,533-1,2.0,3.0,20030331.0,19860101.0,,411616.0,4496133.0,N,,,,,,,,,,,,,,,
1.0,13657.0,5_34,20170530.0,5.0,34.0,GETAFE CENTRO,,I,34.0,37002.0,,92.0,92.0,U,28.0,65.0,6503.0,650301.0,A0299,Calle,,Ferrocarril,N,2,,,28904.0,3.0,33.0,,T065550,650301031.0,7.0,4.0,B1,2.0,065-002,706.0,27.0,582-1,2.0,3.0,20030331.0,19860101.0,,437745.0,4462642.0,T,,,,,,,,,,,,,,,
2.0,7904.0,5_36,20170530.0,5.0,36.0,GETAFE SECTOR 3,,S,36.0,37011.0,,93.0,220.0,U,28.0,65.0,6503.0,650301.0,A0172,Calle,del,Cementerio Municipal,SN,SN,,,28906.0,1.0,14.0,,T065818,650301022.0,,4.0,B1,3.0,065-028,732.0,82.0,582-1,2.0,3.0,20030331.0,19860101.0,,437436.0,4460219.0,T,,,,,,,,,,,,,,,
3.0,12432.0,5_4,20170530.0,5.0,4.0,ALCOBENDAS-S.S. DE LOS REYES,,I,4.0,19003.0,,93.0,127.0,U,28.0,6.0,601.0,60101.0,C0008,Plaza,de,Francisco Casillas,N,1,,,28100.0,1.0,46.0,,T006156,60101014.0,,1.0,B1,3.0,006-007,592.0,,534-4,2.0,3.0,20030331.0,19860101.0,,446325.0,4488825.0,T,,,,,,,,,,,,,,,
4.0,7906.0,5_43,20170530.0,5.0,43.0,"MARGARITAS-UNIVERSIDAD, LAS",,S,43.0,37010.0,,92.0,267.0,U,28.0,65.0,6503.0,650301.0,A0460,Calle, ,Madrid,N,152,,,28903.0,2.0,13.0,,T06567,650301036.0,,4.0,B1,3.0,065-002,706.0,32.0,582-1,2.0,3.0,20030331.0,19860101.0,,438314.0,4464074.0,T,,,,,,,,,,,,,,,
5.0,10869.0,5_51,20170530.0,5.0,51.0,NUEVOS MINISTERIOS,"Personal de atención / taquillas: SI
Parking disuasorio: SI",I,51.0,18002.0,,90.0,71.0,U,28.0,79.0,7901.0,790101.0,05080,Calle,de,Raimundo Fernández Villaverde,N,67,,,28046.0,6.0,29.0,62.0,T0795339,790101267.0,1.0,6.0,A,1.0,079-06-120,120.0,47.0,559-1,1.0,3.0,20030331.0,19860101.0,,441398.0,4477767.0,T,,,,,,,,,,,,,,,
6.0,12739.0,5_53,20170530.0,5.0,53.0,PARLA,,S,53.0,37012.0,,92.0,100.0,U,28.0,106.0,10601.0,1060102.0,00113,Calle,,Real,N,81,,,28981.0,1.0,3.0,,T106171,1060102001.0,7.0,4.0,B2,3.0,106-005,819.0,49.0,582-3,2.0,3.0,20030331.0,19860101.0,,434668.0,4454972.0,T,,,,,,,,,,,,,,,
7.0,10589.0,5_11,20170530.0,5.0,11.0,ATOCHA,,I,11.0,18000.0,,90.0,54.0,U,28.0,79.0,7901.0,790101.0,01357,Avda,de la,Ciudad de Barcelona,N,2,B,,28007.0,2.0,83.0,27.0,T07910055,790101717.0,1.0,4.0,A,1.0,079-02-033,33.0,8.0,559-3,2.0,3.0,20030331.0,19860101.0,,441621.0,4473322.0,T,,,,,,,,,,,,,,,
8.0,12215.0,5_122,20170530.0,5.0,122.0,SOL,,I,122.0,18101.0,,90.0,58.0,U,28.0,79.0,7901.0,790101.0,04980,Plaza,de la,Puerta del Sol,N,6,,,28013.0,1.0,119.0,16.0,T0799116,790101560.0,,5.0,A,1.0,079-01-014,14.0,,solape,2.0,3.0,20090625.0,20090625.0,,440460.0,4474469.0,T,,,,,,,,,,,,,,,
9.0,1282.0,5_15,20170530.0,5.0,15.0,CANTOBLANCO UNIVERSIDAD,,S,15.0,17009.0,,93.0,32.0,U,28.0,79.0,7901.0,790101.0,C1608,Calle,de,Freud,N,3,,,28049.0,8.0,130.0,88.0,T079101,790101923.0,2.0,7.0,B1,3.0,079-08-142,142.0,9.0,534-3,2.0,3.0,20030331.0,19860101.0,,440805.0,4488558.0,T,,,,,,,,,,,,,,,
10.0,13713.0,5_18,20170530.0,5.0,18.0,CHAMARTIN,Complejo Ferroviario,I,18.0,17000.0,,90.0,25.0,U,28.0,79.0,7901.0,790101.0,00073,Calle,de,Agustín de Foxá,N,40,,,28036.0,5.0,94.0,56.0,T0791996,790101150.0,1.0,1.0,A,1.0,079-05-086,86.0,11.0,559-2,2.0,3.0,20030331.0,19860101.0,,442257.0,4480589.0,T,,,,,,,,,,,,,,,
11.0,1288.0,5_31,20170530.0,5.0,31.0,FUENCARRAL,,S,31.0,17001.0,,92.0,216.0,U,28.0,79.0,7901.0,790101.0,08960,Calle,de,Antonio de Cabezón,N,10,,,28034.0,8.0,128.0,86.0,T079530,790101008.0,,7.0,A,2.0,079-08-149,149.0,23.0,534-4,2.0,3.0,20030331.0,19860101.0,,442293.0,4483859.0,T,,,,,,,,,,,,,,,
12.0,1281.0,5_84,20170530.0,5.0,84.0,UNIVERSIDAD P. COMILLAS,,S,84.0,19001.0,,92.0,356.0,U,28.0,79.0,7901.0,790199.0,99999,Ctra,del,Goloso,SN,SN,,,28790.0,8.0,130.0,88.0,T07947,790199999.0,,7.0,B1,3.0,079-08-142,142.0,,534-4,2.0,3.0,20030331.0,19860101.0,,442254.0,4489687.0,T,,,,,,,,,,,,,,,
13.0,1271.0,5_85,20170530.0,5.0,85.0,VALDELASFUENTES,,I,85.0,19002.0,,93.0,363.0,U,28.0,6.0,601.0,60101.0,A0199,Calle,del,Marqués de la Valdavia,N,140,,,28100.0,1.0,57.0,,T006123,60101033.0,,1.0,B1,3.0,006-006,591.0,,534-4,2.0,3.0,20030331.0,19860101.0,,444704.0,4488934.0,T,,,,,,,,,,,,,,,
14.0,10875.0,5_92,20170530.0,5.0,92.0,VILLAVERDE ALTO,,S,92.0,37001.0,,91.0,82.0,U,28.0,79.0,7901.0,790101.0,45300,Calle,del,Valle de Tobalina,N,56,,,28021.0,17.0,106.0,171.0,T07916147,790101855.0,3.0,4.0,A,2.0,079-17-484,484.0,70.0,559-3,2.0,3.0,20030331.0,19860101.0,,439643.0,4466082.0,T,,,,,,,,,,,,,,,
15.0,7907.0,5_93,20170530.0,5.0,93.0,VILLAVERDE BAJO,,S,93.0,60100.0,,92.0,23.0,U,28.0,79.0,7901.0,790101.0,02052,Paseo,de la,Estación,N,2,,,28021.0,17.0,57.0,174.0,T07915541,790101839.0,3.0,4.0,A,2.0,079-17-482,482.0,71.0,559-4,2.0,3.0,20030331.0,19860101.0,,442026.0,4467330.0,T,,,,,,,,,,,,,,,
1.0,13657.0,5_34,20170530.0,5.0,34.0,GETAFE CENTRO,,I,34.0,37002.0,,92.0,92.0,U,28.0,65.0,6503.0,650301.0,A0299,Calle,,Ferrocarril,N,2,,,28904.0,3.0,33.0,,T065550,650301031.0,7.0,4.0,B1,2.0,065-002,706.0,27.0,582-1,2.0,3.0,20030331.0,19860101.0,,437745.0,4462642.0,T,,,,,,,,,,,,,,,
2.0,7904.0,5_36,20170530.0,5.0,36.0,GETAFE SECTOR 3,,S,36.0,37011.0,,93.0,220.0,U,28.0,65.0,6503.0,650301.0,A0172,Calle,del,Cementerio Municipal,SN,SN,,,28906.0,1.0,14.0,,T065818,650301022.0,,4.0,B1,3.0,065-028,732.0,82.0,582-1,2.0,3.0,20030331.0,19860101.0,,437436.0,4460219.0,T,,,,,,,,,,,,,,,
3.0,12538.0,5_37,20170530.0,5.0,37.0,"GOLOSO, EL",El goloso. Madrid (MADRID-FUENCARRAL) (MADRID),S,37.0,17003.0,,93.0,221.0,U,28.0,79.0,7901.0,790199.0,99999,Ctra,de,Colmenar Viejo,SN,SN,,,28790.0,8.0,130.0,88.0,T07954,790199999.0,,7.0,B1,3.0,079-08-142,142.0,18.0,534-3,2.0,3.0,20030331.0,19860101.0,,439656.0,4490209.0,N,,,,,,,,,,,,,,,
4.0,7906.0,5_43,20170530.0,5.0,43.0,"MARGARITAS-UNIVERSIDAD, LAS",,S,43.0,37010.0,,92.0,267.0,U,28.0,65.0,6503.0,650301.0,A0460,Calle, ,Madrid,N,152,,,28903.0,2.0,13.0,,T06567,650301036.0,,4.0,B1,3.0,065-002,706.0,32.0,582-1,2.0,3.0,20030331.0,19860101.0,,438314.0,4464074.0,T,,,,,,,,,,,,,,,
5.0,10869.0,5_51,20170530.0,5.0,51.0,NUEVOS MINISTERIOS,"Personal de atención / taquillas: SI
Parking disuasorio: SI",I,51.0,18002.0,,90.0,71.0,U,28.0,79.0,7901.0,790101.0,05080,Calle,de,Raimundo Fernández Villaverde,N,67,,,28046.0,6.0,29.0,62.0,T0795339,790101267.0,1.0,6.0,A,1.0,079-06-120,120.0,47.0,559-1,1.0,3.0,20030331.0,19860101.0,,441398.0,4477767.0,T,,,,,,,,,,,,,,,
6.0,12739.0,5_53,20170530.0,5.0,53.0,PARLA,,S,53.0,37012.0,,92.0,100.0,U,28.0,106.0,10601.0,1060102.0,00113,Calle,,Real,N,81,,,28981.0,1.0,3.0,,T106171,1060102001.0,7.0,4.0,B2,3.0,106-005,819.0,49.0,582-3,2.0,3.0,20030331.0,19860101.0,,434668.0,4454972.0,T,,,,,,,,,,,,,,,
7.0,10589.0,5_11,20170530.0,5.0,11.0,ATOCHA,,I,11.0,18000.0,,90.0,54.0,U,28.0,79.0,7901.0,790101.0,01357,Avda,de la,Ciudad de Barcelona,N,2,B,,28007.0,2.0,83.0,27.0,T07910055,790101717.0,1.0,4.0,A,1.0,079-02-033,33.0,8.0,559-3,2.0,3.0,20030331.0,19860101.0,,441621.0,4473322.0,T,,,,,,,,,,,,,,,
8.0,12215.0,5_122,20170530.0,5.0,122.0,SOL,,I,122.0,18101.0,,90.0,58.0,U,28.0,79.0,7901.0,790101.0,04980,Plaza,de la,Puerta del Sol,N,6,,,28013.0,1.0,119.0,16.0,T0799116,790101560.0,,5.0,A,1.0,079-01-014,14.0,,solape,2.0,3.0,20090625.0,20090625.0,,440460.0,4474469.0,T,,,,,,,,,,,,,,,
9.0,1282.0,5_15,20170530.0,5.0,15.0,CANTOBLANCO UNIVERSIDAD,,S,15.0,17009.0,,93.0,32.0,U,28.0,79.0,7901.0,790101.0,C1608,Calle,de,Freud,N,3,,,28049.0,8.0,130.0,88.0,T079101,790101923.0,2.0,7.0,B1,3.0,079-08-142,142.0,9.0,534-3,2.0,3.0,20030331.0,19860101.0,,440805.0,4488558.0,T,,,,,,,,,,,,,,,
10.0,13713.0,5_18,20170530.0,5.0,18.0,CHAMARTIN,Complejo Ferroviario,I,18.0,17000.0,,90.0,25.0,U,28.0,79.0,7901.0,790101.0,00073,Calle,de,Agustín de Foxá,N,40,,,28036.0,5.0,94.0,56.0,T0791996,790101150.0,1.0,1.0,A,1.0,079-05-086,86.0,11.0,559-2,2.0,3.0,20030331.0,19860101.0,,442257.0,4480589.0,T,,,,,,,,,,,,,,,
11.0,12535.0,5_21,20170530.0,5.0,21.0,COLMENAR VIEJO,,S,21.0,17005.0,,93.0,174.0,U,28.0,45.0,4505.0,450501.0,99999,Calle,de la,Doctora Nogales de la Morena,SN,SN,,,28770.0,1.0,16.0,,T045610,450501001.0,,7.0,B3,3.0,045-003,611.0,,534-1,2.0,3.0,20030331.0,19860101.0,,434520.0,4499843.0,T,,,,,,,,,,,,,,,
12.0,1288.0,5_31,20170530.0,5.0,31.0,FUENCARRAL,,S,31.0,17001.0,,92.0,216.0,U,28.0,79.0,7901.0,790101.0,08960,Calle,de,Antonio de Cabezón,N,10,,,28034.0,8.0,128.0,86.0,T079530,790101008.0,,7.0,A,2.0,079-08-149,149.0,23.0,534-4,2.0,3.0,20030331.0,19860101.0,,442293.0,4483859.0,T,,,,,,,,,,,,,,,
13.0,12536.0,5_83,20170530.0,5.0,83.0,TRES CANTOS,,S,83.0,17004.0,,92.0,353.0,U,28.0,903.0,90301.0,9030103.0,00285,Plaza,de la,Estación,N,1,,,28760.0,1.0,16.0,,T903274,9030103009.0,,7.0,B2,3.0,903-007,640.0,65.0,534-1,2.0,3.0,20030331.0,19860101.0,,439558.0,4494635.0,P,,,,,,,,,,,,,,,
14.0,10875.0,5_92,20170530.0,5.0,92.0,VILLAVERDE ALTO,,S,92.0,37001.0,,91.0,82.0,U,28.0,79.0,7901.0,790101.0,45300,Calle,del,Valle de Tobalina,N,56,,,28021.0,17.0,106.0,171.0,T07916147,790101855.0,3.0,4.0,A,2.0,079-17-484,484.0,70.0,559-3,2.0,3.0,20030331.0,19860101.0,,439643.0,4466082.0,T,,,,,,,,,,,,,,,
15.0,7907.0,5_93,20170530.0,5.0,93.0,VILLAVERDE BAJO,,S,93.0,60100.0,,92.0,23.0,U,28.0,79.0,7901.0,790101.0,02052,Paseo,de la,Estación,N,2,,,28021.0,17.0,57.0,174.0,T07915541,790101839.0,3.0,4.0,A,2.0,079-17-482,482.0,71.0,559-4,2.0,3.0,20030331.0,19860101.0,,442026.0,4467330.0,T,,,,,,,,,,,,,,,
1.0,11751.0,5_32,20170530.0,5.0,32.0,FUENLABRADA,Frente a Paseo Estación,S,32.0,35002.0,,92.0,91.0,U,28.0,58.0,5801.0,580102.0,10290,Plaza,,Constitución,N,1,,,28944.0,4.0,1.0,,T058547,580102008.0,7.0,4.0,B2,3.0,058-024,699.0,24.0,582-1,2.0,3.0,20030331.0,19860101.0,,432201.0,4459646.0,P,,,,,,,,,,,,,,,
2.0,11733.0,5_40,20170530.0,5.0,40.0,LAGUNA,,I,40.0,35608.0,,92.0,83.0,U,28.0,79.0,7901.0,790101.0,01597,Calle,de,Cuart de Poblet,N,1,,,28047.0,10.0,6.0,101.0,T07910677,790101911.0,3.0,5.0,A,2.0,079-10-264,264.0,29.0,559-3,2.0,3.0,20030331.0,19860101.0,,436954.0,4472537.0,N,,,,,,,,,,,,,,,
3.0,11743.0,5_41,20170530.0,5.0,41.0,LEGANES,,S,41.0,35001.0,,92.0,88.0,U,28.0,74.0,7402.0,740201.0,A0521,Calle,,Virgen del Camino,N,1,,,28913.0,1.0,20.0,,T0741000,740201013.0,7.0,4.0,B1,3.0,074-012,751.0,36.0,582-1,2.0,3.0,20030331.0,19860101.0,,434573.0,4464765.0,P,,,,,,,,,,,,,,,
4.0,12744.0,5_46,20170530.0,5.0,46.0,MENDEZ ALVARO,,I,46.0,35701.0,,90.0,13.0,U,28.0,79.0,7901.0,790101.0,11713,Calle,del,Ombu,N,16,,,28045.0,2.0,83.0,27.0,T07911253,790101720.0,1.0,4.0,A,1.0,079-02-044,44.0,44.0,559-4,2.0,3.0,20030331.0,19860101.0,,442564.0,4472070.0,P,,,,,,,,,,,,,,,
5.0,11749.0,5_48,20170530.0,5.0,48.0,MOSTOLES,,S,48.0,35606.0,,92.0,90.0,U,28.0,92.0,9201.0,920101.0,A0126,Paseo,de la,Estación,N,13,,,28933.0,2.0,11.0,,T092228,920101027.0,7.0,5.0,B2,3.0,092-009,787.0,45.0,581-2,2.0,3.0,20030331.0,19860101.0,,426756.0,4464784.0,P,,,,,,,,,,,,,,,
6.0,11500.0,5_49,20170530.0,5.0,49.0,MOSTOLES EL SOTO,,S,49.0,35607.0,,93.0,278.0,U,28.0,92.0,9201.0,920101.0,A0153,Calle, ,Granada,N,17,,,28935.0,2.0,7.0,,T092143,920101020.0,,5.0,B2,3.0,092-007,785.0,46.0,581-2,2.0,3.0,20030331.0,19860101.0,,425158.0,4465065.0,N,,,,,,,,,,,,,,,
7.0,11744.0,5_5,20170530.0,5.0,5.0,ALCORCON,,E,5.0,35605.0,,92.0,89.0,U,28.0,7.0,701.0,70101.0,A0045,Avda,de,Móstoles,N,12,,,28922.0,1.0,2.0,,T007295,70101028.0,7.0,5.0,B1,3.0,007-014,657.0,3.0,559-3,2.0,3.0,20030331.0,19860101.0,,429477.0,4467153.0,P,,,,,,,,,,,,,,,
8.0,6907.0,5_52,20170530.0,5.0,52.0,ORCASITAS,,S,52.0,35703.0,,93.0,286.0,U,28.0,79.0,7901.0,790101.0,09528,Calle,de,Campotejar,N,24,,,28041.0,12.0,18.0,122.0,T07914920,790101821.0,,4.0,A,2.0,079-12-334,334.0,48.0,559-3,2.0,3.0,20030331.0,19860101.0,,440304.0,4468927.0,N,,,,,,,,,,,,,,,
9.0,10856.0,5_62,20170530.0,5.0,62.0,PUENTE ALCOCER,,I,62.0,35704.0,,93.0,46.0,U,28.0,79.0,7901.0,790101.0,00148,Calle,de,Alcocer,N,54,,,28041.0,17.0,29.0,171.0,T07915773,790101995.0,,4.0,A,2.0,079-17-473,473.0,55.0,559-3,2.0,3.0,20030331.0,19860101.0,,440226.0,4467083.0,N,,,,,,,,,,,,,,,
10.0,13517.0,5_66,20170530.0,5.0,66.0,"RETAMAS, LAS",,E,66.0,35610.0,,93.0,313.0,U,28.0,7.0,701.0,70101.0,02573,Avda,de,Retamas,N,2,,,28922.0,1.0,17.0,,T007593,70101016.0,,5.0,B1,3.0,007-013,656.0,,559-3,2.0,3.0,20030331.0,19860101.0,,428560.0,4466253.0,P,,,,,,,,,,,,,,,
11.0,12729.0,5_7,20170530.0,5.0,7.0,ALUCHE,,I,7.0,35600.0,,90.0,1.0,U,28.0,79.0,7901.0,790101.0,08718,Calle,de,Valmojado,N,293,,,28047.0,10.0,91.0,104.0,T07912935,790101642.0,3.0,5.0,A,2.0,079-10-256,256.0,4.0,559-3,2.0,3.0,20030331.0,19860101.0,,435539.0,4471045.0,N,,,,,,,,,,,,,,,
12.0,9425.0,5_72,20170530.0,5.0,72.0,SAN JOSE DE VALDERAS,,S,72.0,35604.0,,93.0,336.0,U,28.0,7.0,701.0,70101.0,00171,Calle,de,Sahagún,N,36,,,28925.0,2.0,1.0,,T007262,70101001.0,,5.0,B1,3.0,007-006,649.0,60.0,,2.0,3.0,20030331.0,19860101.0,,430829.0,4467857.0,N,,,,,,,,,,,,,,,
13.0,7903.0,5_77,20170530.0,5.0,77.0,"SERNA, LA",,S,77.0,35010.0,,93.0,343.0,U,28.0,58.0,5801.0,580102.0,A0055,Calle, ,Barcelona,N,28,,,28941.0,6.0,1.0,,T058179,580102029.0,,4.0,B2,3.0,058-008,683.0,30.0,582-1,2.0,3.0,20030331.0,19860101.0,,432757.0,4461200.0,P,,,,,,,,,,,,,,,
14.0,12431.0,5_1,20170530.0,5.0,1.0,"AGUILAS, LAS",,I,1.0,35602.0,,93.0,120.0,U,28.0,79.0,7901.0,790101.0,02495,Avda,del,General Fanjul,N,110,,,28044.0,10.0,174.0,107.0,T07913516,790101528.0,,5.0,A,2.0,079-10-242,242.0,31.0,559-3,2.0,3.0,20030331.0,19860101.0,,433877.0,4470566.0,N,,,,,,,,,,,,,,,
15.0,7728.0,5_104,20170530.0,5.0,104.0,HUMANES,,S,104.0,35012.0,,93.0,235.0,U,28.0,73.0,7301.0,730199.0,00522,Calle, ,Cenicientos,N,26,,,28970.0,1.0,4.0,,T073171,730199999.0,,4.0,B3,3.0,073-002,738.0,,582-1,2.0,3.0,20040929.0,20040101.0,,429656.0,4456669.0,P,,,,,,,,,,,,,,,
16.0,11498.0,5_105,20170530.0,5.0,105.0,PARQUE POLVORANCA,,S,105.0,35011.0,,93.0,295.0,U,28.0,74.0,7402.0,740299.0,C0026,Calle, ,Alcalde Francisco Moreno Menéndez,N,4,,,28914.0,1.0,18.0,,T0741409,740299999.0,,4.0,B1,3.0,074-035,774.0,,582-1,2.0,3.0,20040929.0,20040101.0,,433549.0,4462945.0,P,,,,,,,,,,,,,,,
17.0,10589.0,5_11,20170530.0,5.0,11.0,ATOCHA,,I,11.0,18000.0,,90.0,54.0,U,28.0,79.0,7901.0,790101.0,01357,Avda,de la,Ciudad de Barcelona,N,2,B,,28007.0,2.0,83.0,27.0,T07910055,790101717.0,1.0,4.0,A,1.0,079-02-033,33.0,8.0,559-3,2.0,3.0,20030331.0,19860101.0,,441621.0,4473322.0,T,,,,,,,,,,,,,,,
18.0,12365.0,5_24,20170530.0,5.0,24.0,CUATRO VIENTOS,,I,24.0,35603.0,,92.0,84.0,U,28.0,79.0,7901.0,790101.0,02110,Paseo,de,Extremadura,N,567,A,,28024.0,10.0,216.0,106.0,T07913753,790101522.0,3.0,5.0,A,2.0,079-10-233,233.0,15.0,559-3,2.0,3.0,20030331.0,19860101.0,,432926.0,4470188.0,P,,,,,,,,,,,,,,,
19.0,9073.0,5_26,20170530.0,5.0,26.0,DOCE DE OCTUBRE,,I,26.0,35702.0,,93.0,182.0,U,28.0,79.0,7901.0,790101.0,01496,Avda,de,Córdoba,N,39,,,28041.0,12.0,19.0,122.0,T07913941,790101672.0,,4.0,A,2.0,079-12-326,326.0,16.0,559-3,2.0,3.0,20030331.0,19860101.0,,440807.0,4470261.0,N,,,,,,,,,,,,,,,
20.0,12736.0,5_28,20170530.0,5.0,28.0,EMBAJADORES,,I,28.0,35609.0,,92.0,10.0,U,28.0,79.0,7901.0,790101.0,01925,Gta,de,Embajadores,N,1,,,28012.0,1.0,39.0,12.0,T07910437,790101612.0,1.0,5.0,A,1.0,079-01-022,22.0,21.0,559-3,2.0,3.0,20030331.0,19860101.0,,440489.0,4473168.0,P,,,,,,,,,,,,,,,
21.0,12899.0,5_30,20170530.0,5.0,30.0,FANJUL,,I,30.0,35601.0,,93.0,214.0,U,28.0,79.0,7901.0,790101.0,02495,Avda,del,General Fanjul,N,27,,,28044.0,10.0,167.0,107.0,T07912928,790101527.0,,5.0,A,2.0,079-10-241,241.0,22.0,559-3,2.0,3.0,20030331.0,19860101.0,,434873.0,4470831.0,N,,,,,,,,,,,,,,,
22.0,10875.0,5_92,20170530.0,5.0,92.0,VILLAVERDE ALTO,,S,92.0,37001.0,,91.0,82.0,U,28.0,79.0,7901.0,790101.0,45300,Calle,del,Valle de Tobalina,N,56,,,28021.0,17.0,106.0,171.0,T07916147,790101855.0,3.0,4.0,A,2.0,079-17-484,484.0,70.0,559-3,2.0,3.0,20030331.0,19860101.0,,439643.0,4466082.0,T,,,,,,,,,,,,,,,
23.0,9034.0,5_95,20170530.0,5.0,95.0,ZARZAQUEMADA,,E,95.0,35009.0,,93.0,374.0,U,28.0,74.0,7402.0,740201.0,A0144,Avda, ,Europa,N,14,,,28919.0,5.0,1.0,,T074331,740201001.0,,4.0,B1,3.0,074-007,746.0,72.0,,2.0,3.0,20030331.0,19860101.0,,436553.0,4466066.0,P,,,,,,,,,,,,,,,
1.0,10820.0,5_42,20170530.0,5.0,42.0,MAJADAHONDA,,S,42.0,10007.0,,92.0,263.0,U,28.0,80.0,8022.0,802201.0,A0005,Cmno, ,Estación del Plantío,N,6,,,28221.0,2.0,15.0,,T080165,802201043.0,,6.0,B2,3.0,080-004,979.0,41.0,559-1,2.0,3.0,20030331.0,19860101.0,,428452.0,4480950.0,P,,,,,,,,,,,,,,,
2.0,10869.0,5_51,20170530.0,5.0,51.0,NUEVOS MINISTERIOS,"Personal de atención / taquillas: SI
Parking disuasorio: SI",I,51.0,18002.0,,90.0,71.0,U,28.0,79.0,7901.0,790101.0,05080,Calle,de,Raimundo Fernández Villaverde,N,67,,,28046.0,6.0,29.0,62.0,T0795339,790101267.0,1.0,6.0,A,1.0,079-06-120,120.0,47.0,559-1,1.0,3.0,20030331.0,19860101.0,,441398.0,4477767.0,T,,,,,,,,,,,,,,,
3.0,11738.0,5_58,20170530.0,5.0,58.0,PITIS,,S,58.0,97100.0,,93.0,86.0,U,28.0,79.0,7901.0,790199.0,45576,Ctra,a la,Estación de Pitis,N,19,,,28035.0,8.0,139.0,87.0,T079764,790199999.0,2.0,7.0,A,2.0,079-08-158,158.0,52.0,559-1,2.0,3.0,20030331.0,19860101.0,,438601.0,4483172.0,P,,,,,,,,,,,,,,,
4.0,10860.0,5_59,20170530.0,5.0,59.0,"POZO, EL",,S,59.0,70003.0,,91.0,48.0,U,28.0,79.0,7901.0,790101.0,01987,Avda,de,Entrevías,N,140,,,28053.0,13.0,2.0,131.0,T07914302,790101771.0,3.0,3.0,A,2.0,079-13-374,374.0,74.0,559-4,2.0,3.0,20030331.0,19860101.0,,444402.0,4469894.0,N,,,,,,,,,,,,,,,
5.0,11080.0,5_60,20170530.0,5.0,60.0,POZUELO,,S,60.0,10002.0,,93.0,303.0,U,28.0,115.0,11504.0,1150401.0,A0255,Calle, ,Estación,N,2,,,28224.0,2.0,4.0,,T115197,1150401010.0,,6.0,B1,3.0,115-009,996.0,53.0,559-1,2.0,3.0,20030331.0,19860101.0,,432259.0,4477916.0,N,,,,,,,,,,,,,,,
6.0,13438.0,5_61,20170530.0,5.0,61.0,PRINCIPE PIO,Con Vía Ferrocarril,I,61.0,10000.0,,90.0,18.0,U,28.0,79.0,7901.0,790101.0,02239,Paseo,de la,Florida,N,2,,,28008.0,9.0,10.0,91.0,T0798149,790101315.0,1.0,6.0,A,1.0,079-09-230,230.0,54.0,559-1,2.0,3.0,20030331.0,19860101.0,,439007.0,4474950.0,N,,,,,,,,,,,,,,,
7.0,12539.0,5_64,20170530.0,5.0,64.0,RAMON Y CAJAL,,S,64.0,97201.0,,92.0,311.0,U,28.0,79.0,7901.0,790101.0,08431,Calle,de,San Modesto,N,50,,,28034.0,8.0,111.0,86.0,T0791097,790101069.0,,7.0,A,2.0,079-08-187,187.0,56.0,559-1,2.0,3.0,20030331.0,19860101.0,,441231.0,4482389.0,N,,,,,,,,,,,,,,,
8.0,9062.0,5_65,20170530.0,5.0,65.0,RECOLETOS,,I,65.0,18001.0,,92.0,67.0,U,28.0,79.0,7901.0,790101.0,00985,Paseo,de,Recoletos,N,20,,,28001.0,4.0,5.0,41.0,T0798458,790101325.0,1.0,1.0,A,1.0,079-04-070,70.0,57.0,559-1,2.0,3.0,20030331.0,19860101.0,,441504.0,4475190.0,N,,,,,,,,,,,,,,,
9.0,10824.0,5_68,20170530.0,5.0,68.0,"ROZAS, LAS",,S,68.0,10005.0,,93.0,322.0,U,28.0,127.0,12704.0,1270401.0,A0038,Calle,de la,Vía de Servicio de las Rozas,N,1,,,28231.0,1.0,6.0,,T127599,1270401012.0,,6.0,B2,3.0,127-009,1018.0,34.0,558-2,2.0,3.0,20030331.0,19860101.0,,426543.0,4483184.0,N,,,,,,,,,,,,,,,
10.0,10541.0,5_71,20170530.0,5.0,71.0,SAN FERNANDO,Con Avda de San Pablo,S,71.0,70101.0,,93.0,333.0,U,28.0,49.0,4901.0,490101.0,10029,Calle, ,Estación de ferrocarril,N,6,,,28823.0,4.0,2.0,,T04913,490101019.0,,2.0,B1,3.0,049-003,896.0,59.0,559-2,2.0,3.0,20030331.0,19860101.0,,454836.0,4477235.0,N,,,,,,,,,,,,,,,
11.0,12658.0,5_75,20170530.0,5.0,75.0,SANTA EUGENIA,,S,75.0,70109.0,,93.0,340.0,U,28.0,79.0,7901.0,790101.0,10280,Avda,de,Santa Eugenia,N,2,,,28031.0,18.0,39.0,182.0,T07912787,790101788.0,,3.0,A,2.0,079-18-504,504.0,62.0,559-4,2.0,3.0,20030331.0,19860101.0,,448415.0,4471096.0,N,,,,,,,,,,,,,,,
12.0,12653.0,5_10,20170530.0,5.0,10.0,ASAMBLEA DE MADRID-ENTREVIAS,,S,10.0,70002.0,,93.0,145.0,U,28.0,79.0,7901.0,790101.0,06477,Calle,del,Vizconde de Arlessón,N,45,,,28053.0,13.0,23.0,131.0,T07913451,790101766.0,,3.0,A,2.0,079-13-372,372.0,20.0,559-4,2.0,3.0,20030331.0,19860101.0,,443407.0,4470542.0,N,,,,,,,,,,,,,,,
13.0,10540.0,5_106,20170530.0,5.0,106.0,"GARENA, LA",,E,106.0,70111.0,,92.0,218.0,U,28.0,5.0,501.0,50101.0,07030,Calle, ,Fausto Elhuyar,N,6,,,28806.0,8.0,29.0,,T005907,50101050.0,,2.0,B3,3.0,005-008,864.0,,560-1,2.0,3.0,20040929.0,20040101.0,,466785.0,4481365.0,P,,,,,,,,,,,,,,,
14.0,10589.0,5_11,20170530.0,5.0,11.0,ATOCHA,,I,11.0,18000.0,,90.0,54.0,U,28.0,79.0,7901.0,790101.0,01357,Avda,de la,Ciudad de Barcelona,N,2,B,,28007.0,2.0,83.0,27.0,T07910055,790101717.0,1.0,4.0,A,1.0,079-02-033,33.0,8.0,559-3,2.0,3.0,20030331.0,19860101.0,,441621.0,4473322.0,T,,,,,,,,,,,,,,,
15.0,10821.0,5_13,20170530.0,5.0,13.0,"BARRIAL-C.COM.POZUELO, EL",Con Vía Ferrocarril,S,13.0,10010.0,,93.0,153.0,U,28.0,79.0,7901.0,790101.0,A0060,Via, ,Ferrocarril,SN,SN,,,28023.0,9.0,72.0,96.0,T0793232,790101990.0,,6.0,B1,3.0,079-09-200,200.0,81.0,559-1,2.0,3.0,20030331.0,19860101.0,,431631.0,4479932.0,N,,,,,,,,,,,,,,,
16.0,34602.0,5_143,20170530.0,5.0,143.0,SOTO DEL HENARES,,I,143.0,70112.0,,93.0,520.0,U,28.0,148.0,14801.0,,C0049,Paseo,de la,Democracia,N,17,,,28850.0,2.0,19.0,,T1488824,,,2.0,B2,2.0,148-013,944.0,,560-1,2.0,3.0,20150828.0,20150828.0,,462693.0,4479508.0,T,,,,,,,,,,,,,,,
17.0,13713.0,5_18,20170530.0,5.0,18.0,CHAMARTIN,Complejo Ferroviario,I,18.0,17000.0,,90.0,25.0,U,28.0,79.0,7901.0,790101.0,00073,Calle,de,Agustín de Foxá,N,40,,,28036.0,5.0,94.0,56.0,T0791996,790101150.0,1.0,1.0,A,1.0,079-05-086,86.0,11.0,559-2,2.0,3.0,20030331.0,19860101.0,,442257.0,4480589.0,T,,,,,,,,,,,,,,,
18.0,12671.0,5_2,20170530.0,5.0,2.0,ALCALÁ DE HENARES,Con Calle de Valdetorres,S,2.0,70103.0,,93.0,125.0,U,28.0,5.0,501.0,50101.0,A0549,Calle, ,Pedro Lainez,N,2,,,28807.0,7.0,4.0,,T005571,50101029.0,,2.0,B3,3.0,005-018,874.0,1.0,560-1,2.0,3.0,20030331.0,19860101.0,,469063.0,4482309.0,N,,,,,,,,,,,,,,,
19.0,11739.0,5_22,20170530.0,5.0,22.0,COSLADA,Con Trva de León Felipe,I,22.0,70108.0,,92.0,87.0,U,28.0,49.0,4901.0,490101.0,A0172,Calle,de,Luis Braille,N,8,,,28821.0,1.0,13.0,,T049291,490101010.0,8.0,2.0,B1,3.0,049-005,898.0,14.0,559-2,2.0,3.0,20030331.0,19860101.0,,452508.0,4475148.0,P,,,,,,,,,,,,,,,
20.0,12674.0,5_81,20170530.0,5.0,81.0,TORREJON DE ARDOZ,Con Calle Pamplona,S,81.0,70102.0,,93.0,351.0,U,28.0,148.0,14801.0,1480101.0,01866,Paseo, ,Estación,N,3,,,28850.0,3.0,5.0,,T148376,1480101026.0,,2.0,B2,3.0,148-009,940.0,63.0,560-1,2.0,3.0,20030331.0,19860101.0,,459425.0,4478534.0,N,,,,,,,,,,,,,,,
21.0,10862.0,5_87,20170530.0,5.0,87.0,VALLECAS,,E,87.0,70005.0,,91.0,49.0,U,28.0,79.0,7901.0,790101.0,09429,Avda,de la,Democracia,N,1,,,28031.0,13.0,128.0,134.0,T07913501,790101776.0,3.0,3.0,A,2.0,079-13-350,350.0,67.0,559-4,2.0,3.0,20030331.0,19860101.0,,447096.0,4470575.0,P,,,,,,,,,,,,,,,
22.0,11756.0,5_9,20170530.0,5.0,9.0,ARAVACA,Con Calle de las Rosas de Aravaca,S,9.0,10001.0,,92.0,94.0,U,28.0,79.0,7901.0,790101.0,45062,Calle,de la,Golondrina,N,104,,,28023.0,9.0,88.0,97.0,T0795382,790101907.0,5.0,6.0,A,2.0,079-09-204,204.0,6.0,559-1,2.0,3.0,20030331.0,19860101.0,,433469.0,4478023.0,P,,,,,,,,,,,,,,,
23.0,13715.0,5_90,20170530.0,5.0,90.0,VICALVARO,,I,90.0,70100.0,,91.0,39.0,U,28.0,79.0,7901.0,790101.0,08410,Calle,de,San Cipriano,N,85,,,28032.0,19.0,47.0,191.0,T07910783,790101895.0,4.0,3.0,A,2.0,079-19-531,531.0,68.0,559-4,1.0,3.0,20030331.0,19860101.0,,449540.0,4472679.0,N,,,,,,,,,,,,,,,
1.0,12744.0,5_46,20170530.0,5.0,46.0,MENDEZ ALVARO,,I,46.0,35701.0,,90.0,13.0,U,28.0,79.0,7901.0,790101.0,11713,Calle,del,Ombu,N,16,,,28045.0,2.0,83.0,27.0,T07911253,790101720.0,1.0,4.0,A,1.0,079-02-044,44.0,44.0,559-4,2.0,3.0,20030331.0,19860101.0,,442564.0,4472070.0,P,,,,,,,,,,,,,,,
2.0,10869.0,5_51,20170530.0,5.0,51.0,NUEVOS MINISTERIOS,"Personal de atención / taquillas: SI
Parking disuasorio: SI",I,51.0,18002.0,,90.0,71.0,U,28.0,79.0,7901.0,790101.0,05080,Calle,de,Raimundo Fernández Villaverde,N,67,,,28046.0,6.0,29.0,62.0,T0795339,790101267.0,1.0,6.0,A,1.0,079-06-120,120.0,47.0,559-1,1.0,3.0,20030331.0,19860101.0,,441398.0,4477767.0,T,,,,,,,,,,,,,,,
3.0,12376.0,5_57,20170530.0,5.0,57.0,PIRAMIDES,,I,57.0,18005.0,,92.0,85.0,U,28.0,79.0,7901.0,790101.0,11748,Paseo,del,Doctor Vallejo Nágera,N,37,,,28005.0,2.0,87.0,22.0,T07910617,790101569.0,1.0,4.0,A,1.0,079-02-027,27.0,75.0,559-3,2.0,3.0,20030331.0,19860101.0,,439748.0,4472893.0,P,,,,,,,,,,,,,,,
4.0,13438.0,5_61,20170530.0,5.0,61.0,PRINCIPE PIO,Con Vía Ferrocarril,I,61.0,10000.0,,90.0,18.0,U,28.0,79.0,7901.0,790101.0,02239,Paseo,de la,Florida,N,2,,,28008.0,9.0,10.0,91.0,T0798149,790101315.0,1.0,6.0,A,1.0,079-09-230,230.0,54.0,559-1,2.0,3.0,20030331.0,19860101.0,,439007.0,4474950.0,N,,,,,,,,,,,,,,,
5.0,9062.0,5_65,20170530.0,5.0,65.0,RECOLETOS,,I,65.0,18001.0,,92.0,67.0,U,28.0,79.0,7901.0,790101.0,00985,Paseo,de,Recoletos,N,20,,,28001.0,4.0,5.0,41.0,T0798458,790101325.0,1.0,1.0,A,1.0,079-04-070,70.0,57.0,559-1,2.0,3.0,20030331.0,19860101.0,,441504.0,4475190.0,N,,,,,,,,,,,,,,,
6.0,10589.0,5_11,20170530.0,5.0,11.0,ATOCHA,,I,11.0,18000.0,,90.0,54.0,U,28.0,79.0,7901.0,790101.0,01357,Avda,de la,Ciudad de Barcelona,N,2,B,,28007.0,2.0,83.0,27.0,T07910055,790101717.0,1.0,4.0,A,1.0,079-02-033,33.0,8.0,559-3,2.0,3.0,20030331.0,19860101.0,,441621.0,4473322.0,T,,,,,,,,,,,,,,,
7.0,13488.0,5_133,20170530.0,5.0,133.0,FUENTE DE LA MORA,,I,133.0,98003.0,,92.0,102.0,U,28.0,79.0,7901.0,790101.0,C0361,Calle,de,Dulce Chacón,N,15,,,28050.0,16.0,106.0,166.0,T0791209,790101154.0,4.0,7.0,A,1.0,079-16-436,436.0,,559-2,2.0,3.0,20110329.0,20110329.0,,443933.0,4481980.0,T,,,,,,,,,,,,,,,
8.0,13713.0,5_18,20170530.0,5.0,18.0,CHAMARTIN,Complejo Ferroviario,I,18.0,17000.0,,90.0,25.0,U,28.0,79.0,7901.0,790101.0,00073,Calle,de,Agustín de Foxá,N,40,,,28036.0,5.0,94.0,56.0,T0791996,790101150.0,1.0,1.0,A,1.0,079-05-086,86.0,11.0,559-2,2.0,3.0,20030331.0,19860101.0,,442257.0,4480589.0,T,,,,,,,,,,,,,,,
9.0,12375.0,5_25,20170530.0,5.0,25.0,DELICIAS,,S,25.0,18004.0,,92.0,181.0,U,28.0,79.0,7901.0,790101.0,05084,Calle,de,Ramírez de Prado,N,3,B,,28045.0,2.0,52.0,25.0,T07910929,790101617.0,,4.0,A,1.0,079-02-035,35.0,73.0,559-3,2.0,3.0,20030331.0,19860101.0,,441322.0,4472634.0,P,,,,,,,,,,,,,,,
1.0,13554.0,5_33,20170530.0,5.0,33.0,GALAPAGAR-LA NAVATA,,S,33.0,10104.0,,93.0,217.0,U,28.0,61.0,6108.0,610801.0,A0253,Ctra,de,Galapagar-La Navata,N,154,,,28420.0,1.0,7.0,,T061192,610801019.0,,6.0,B3,3.0,061-002,972.0,25.0,533-2,2.0,3.0,20030331.0,19860101.0,,417036.0,4495038.0,N,,,,,,,,,,,,,,,
2.0,10822.0,5_44,20170530.0,5.0,44.0,"MATAS, LAS",,S,44.0,10101.0,,93.0,270.0,U,28.0,127.0,12715.0,1271501.0,02753,Plaza,del,Ferrocarril,N,1,,,28290.0,1.0,8.0,,T127142,1271501021.0,,6.0,B2,3.0,127-002,1011.0,33.0,533-4,2.0,3.0,20030331.0,19860101.0,,424176.0,4489678.0,P,,,,,,,,,,,,,,,
3.0,13551.0,5_47,20170530.0,5.0,47.0,"MOLINOS, LOS",,S,47.0,12005.0,,93.0,276.0,U,28.0,87.0,8701.0,870102.0,A0072,Gta,de la,Estación,N,2,,,28460.0,1.0,2.0,,T087192,870102007.0,,6.0,C2,4.0,087-001,1161.0,38.0,508-3,2.0,3.0,20030331.0,19860101.0,,409992.0,4507025.0,N,,,,,,,,,,,,,,,
4.0,13553.0,5_50,20170530.0,5.0,50.0,"NEGRALES, LOS",,S,50.0,12001.0,,93.0,279.0,U,28.0,10.0,1018.0,101801.0,A0191,Avda,de la,Reina Victoria,N,47,,,28439.0,1.0,5.0,,T010253,101801003.0,,6.0,C1,4.0,010-001,1152.0,39.0,533-1,2.0,3.0,20030331.0,19860101.0,,413698.0,4499346.0,N,,,,,,,,,,,,,,,
5.0,10869.0,5_51,20170530.0,5.0,51.0,NUEVOS MINISTERIOS,"Personal de atención / taquillas: SI
Parking disuasorio: SI",I,51.0,18002.0,,90.0,71.0,U,28.0,79.0,7901.0,790101.0,05080,Calle,de,Raimundo Fernández Villaverde,N,67,,,28046.0,6.0,29.0,62.0,T0795339,790101267.0,1.0,6.0,A,1.0,079-06-120,120.0,47.0,559-1,1.0,3.0,20030331.0,19860101.0,,441398.0,4477767.0,T,,,,,,,,,,,,,,,
6.0,10823.0,5_55,20170530.0,5.0,55.0,PINAR DE LAS ROZAS,,S,55.0,10100.0,,93.0,297.0,U,28.0,127.0,12715.0,1271501.0,02710,Lugar, ,Estación Ferrocarril El Pinar,N,1,,,28232.0,1.0,32.0,,T127387,1271501018.0,,6.0,B2,3.0,127-006,1015.0,50.0,533-4,2.0,3.0,20030331.0,19860101.0,,425385.0,4486311.0,N,,,,,,,,,,,,,,,
7.0,11738.0,5_58,20170530.0,5.0,58.0,PITIS,,S,58.0,97100.0,,93.0,86.0,U,28.0,79.0,7901.0,790199.0,45576,Ctra,a la,Estación de Pitis,N,19,,,28035.0,8.0,139.0,87.0,T079764,790199999.0,2.0,7.0,A,2.0,079-08-158,158.0,52.0,559-1,2.0,3.0,20030331.0,19860101.0,,438601.0,4483172.0,P,,,,,,,,,,,,,,,
8.0,13552.0,5_6,20170530.0,5.0,6.0,ALPEDRETE,,S,6.0,12002.0,,93.0,134.0,U,28.0,10.0,1001.0,100101.0,A0088,Cmno,de la,Estación,N,36,,,28430.0,1.0,3.0,,T010167,100101004.0,,6.0,C1,4.0,010-001,1152.0,42.0,533-1,2.0,3.0,20030331.0,19860101.0,,412610.0,4501533.0,N,,,,,,,,,,,,,,,
9.0,12539.0,5_64,20170530.0,5.0,64.0,RAMON Y CAJAL,,S,64.0,97201.0,,92.0,311.0,U,28.0,79.0,7901.0,790101.0,08431,Calle,de,San Modesto,N,50,,,28034.0,8.0,111.0,86.0,T0791097,790101069.0,,7.0,A,2.0,079-08-187,187.0,56.0,559-1,2.0,3.0,20030331.0,19860101.0,,441231.0,4482389.0,N,,,,,,,,,,,,,,,
10.0,9062.0,5_65,20170530.0,5.0,65.0,RECOLETOS,,I,65.0,18001.0,,92.0,67.0,U,28.0,79.0,7901.0,790101.0,00985,Paseo,de,Recoletos,N,20,,,28001.0,4.0,5.0,41.0,T0798458,790101325.0,1.0,1.0,A,1.0,079-04-070,70.0,57.0,559-1,2.0,3.0,20030331.0,19860101.0,,441504.0,4475190.0,N,,,,,,,,,,,,,,,
11.0,10589.0,5_11,20170530.0,5.0,11.0,ATOCHA,,I,11.0,18000.0,,90.0,54.0,U,28.0,79.0,7901.0,790101.0,01357,Avda,de la,Ciudad de Barcelona,N,2,B,,28007.0,2.0,83.0,27.0,T07910055,790101717.0,1.0,4.0,A,1.0,079-02-033,33.0,8.0,559-3,2.0,3.0,20030331.0,19860101.0,,441621.0,4473322.0,T,,,,,,,,,,,,,,,
12.0,9672.0,5_16,20170530.0,5.0,16.0,CERCEDILLA,Posee Parking sin plazas PMRs,S,16.0,12006.0,,93.0,169.0,U,28.0,38.0,3802.0,380201.0,00026,Calle,del,Cascajal,N,7,,,28470.0,1.0,3.0,,T038213,380201011.0,,6.0,C2,4.0,038-001,1155.0,10.0,508-3,1.0,3.0,20030331.0,19860101.0,,410110.0,4510379.0,P,,,,,,,,,,,,,,,
13.0,13713.0,5_18,20170530.0,5.0,18.0,CHAMARTIN,Complejo Ferroviario,I,18.0,17000.0,,90.0,25.0,U,28.0,79.0,7901.0,790101.0,00073,Calle,de,Agustín de Foxá,N,40,,,28036.0,5.0,94.0,56.0,T0791996,790101150.0,1.0,1.0,A,1.0,079-05-086,86.0,11.0,559-2,2.0,3.0,20030331.0,19860101.0,,442257.0,4480589.0,T,,,,,,,,,,,,,,,
14.0,13537.0,5_20,20170530.0,5.0,20.0,COLLADO MEDIANO,,S,20.0,12004.0,,93.0,173.0,U,28.0,46.0,4601.0,460101.0,A0163,Paseo,de los,Rosales,N,47,,,28450.0,1.0,1.0,,T046153,460101008.0,,6.0,C1,4.0,046-001,1156.0,13.0,508-3,2.0,3.0,20030331.0,19860101.0,,412587.0,4505374.0,N,,,,,,,,,,,,,,,
15.0,10648.0,5_82,20170530.0,5.0,82.0,TORRELODONES,,S,82.0,10103.0,,93.0,352.0,U,28.0,152.0,15204.0,1520401.0,00474,Plaza,de,Salvador Sánchez Frascuelo,N,6,,,28250.0,1.0,5.0,,T152194,1520401002.0,,6.0,B3,3.0,152-001,1020.0,64.0,533-4,2.0,3.0,20030331.0,19860101.0,,419147.0,4492172.0,P,,,,,,,,,,,,,,,
16.0,5786.0,5_91,20170530.0,5.0,91.0,VILLALBA,,S,91.0,10200.0,,92.0,371.0,U,28.0,47.0,4705.0,470501.0,A0107,Plaza,de la,Estación,N,1,,,28400.0,1.0,11.0,,T047414,470501006.0,,6.0,B3,3.0,047-006,968.0,69.0,533-2,2.0,3.0,20030331.0,19860101.0,,414849.0,4497977.0,P,,,,,,,,,,,,,,,
1.0,9857.0,5_63,20170530.0,5.0,63.0,PUERTO NAVACERRADA,,S,63.0,12020.0,,93.0,308.0,U,28.0,38.0,3803.0,380301.0,00588,Calle,de la,Virgen de las Nieves,N,7,,,28470.0,1.0,1.0,,T038100,380301001.0,,6.0,C2,4.0,038-001,1155.0,,508-2,2.0,3.0,20030331.0,19860101.0,,415334.0,4515518.0,N,Esq Ctra M-601 (Villalba-Segovia),,,,,,,,,,,,,,
2.0,9672.0,5_16,20170530.0,5.0,16.0,CERCEDILLA,Posee Parking sin plazas PMRs,S,16.0,12006.0,,93.0,169.0,U,28.0,38.0,3802.0,380201.0,00026,Calle,del,Cascajal,N,7,,,28470.0,1.0,3.0,,T038213,380201011.0,,6.0,C2,4.0,038-001,1155.0,10.0,508-3,1.0,3.0,20030331.0,19860101.0,,410110.0,4510379.0,P,,,,,,,,,,,,,,,
3.0,7202.0,5_23,20170530.0,5.0,23.0,COTOS,Con Ctra a Valdesquí,S,23.0,12023.0,,93.0,178.0,C,40.0,181.0,12001.0,1200101.0,A0046,Ctra, ,M-604 (de la A-1 al Puerto de Navacerrada),N,1,,,,1.0,1.0,,T1201,1200101001.0,,,C2,, ,0.0,,508-2,2.0,3.0,20030331.0,19860101.0,,418773.0,4519681.0,N,,,,,,,,,,,,,,,
1.0,13554.0,5_33,20170530.0,5.0,33.0,GALAPAGAR-LA NAVATA,,S,33.0,10104.0,,93.0,217.0,U,28.0,61.0,6108.0,610801.0,A0253,Ctra,de,Galapagar-La Navata,N,154,,,28420.0,1.0,7.0,,T061192,610801019.0,,6.0,B3,3.0,061-002,972.0,25.0,533-2,2.0,3.0,20030331.0,19860101.0,,417036.0,4495038.0,N,,,,,,,,,,,,,,,
2.0,10820.0,5_42,20170530.0,5.0,42.0,MAJADAHONDA,,S,42.0,10007.0,,92.0,263.0,U,28.0,80.0,8022.0,802201.0,A0005,Cmno, ,Estación del Plantío,N,6,,,28221.0,2.0,15.0,,T080165,802201043.0,,6.0,B2,3.0,080-004,979.0,41.0,559-1,2.0,3.0,20030331.0,19860101.0,,428452.0,4480950.0,P,,,,,,,,,,,,,,,
3.0,10822.0,5_44,20170530.0,5.0,44.0,"MATAS, LAS",,S,44.0,10101.0,,93.0,270.0,U,28.0,127.0,12715.0,1271501.0,02753,Plaza,del,Ferrocarril,N,1,,,28290.0,1.0,8.0,,T127142,1271501021.0,,6.0,B2,3.0,127-002,1011.0,33.0,533-4,2.0,3.0,20030331.0,19860101.0,,424176.0,4489678.0,P,,,,,,,,,,,,,,,
4.0,12744.0,5_46,20170530.0,5.0,46.0,MENDEZ ALVARO,,I,46.0,35701.0,,90.0,13.0,U,28.0,79.0,7901.0,790101.0,11713,Calle,del,Ombu,N,16,,,28045.0,2.0,83.0,27.0,T07911253,790101720.0,1.0,4.0,A,1.0,079-02-044,44.0,44.0,559-4,2.0,3.0,20030331.0,19860101.0,,442564.0,4472070.0,P,,,,,,,,,,,,,,,
5.0,10869.0,5_51,20170530.0,5.0,51.0,NUEVOS MINISTERIOS,"Personal de atención / taquillas: SI
Parking disuasorio: SI",I,51.0,18002.0,,90.0,71.0,U,28.0,79.0,7901.0,790101.0,05080,Calle,de,Raimundo Fernández Villaverde,N,67,,,28046.0,6.0,29.0,62.0,T0795339,790101267.0,1.0,6.0,A,1.0,079-06-120,120.0,47.0,559-1,1.0,3.0,20030331.0,19860101.0,,441398.0,4477767.0,T,,,,,,,,,,,,,,,
6.0,10823.0,5_55,20170530.0,5.0,55.0,PINAR DE LAS ROZAS,,S,55.0,10100.0,,93.0,297.0,U,28.0,127.0,12715.0,1271501.0,02710,Lugar, ,Estación Ferrocarril El Pinar,N,1,,,28232.0,1.0,32.0,,T127387,1271501018.0,,6.0,B2,3.0,127-006,1015.0,50.0,533-4,2.0,3.0,20030331.0,19860101.0,,425385.0,4486311.0,N,,,,,,,,,,,,,,,
7.0,12376.0,5_57,20170530.0,5.0,57.0,PIRAMIDES,,I,57.0,18005.0,,92.0,85.0,U,28.0,79.0,7901.0,790101.0,11748,Paseo,del,Doctor Vallejo Nágera,N,37,,,28005.0,2.0,87.0,22.0,T07910617,790101569.0,1.0,4.0,A,1.0,079-02-027,27.0,75.0,559-3,2.0,3.0,20030331.0,19860101.0,,439748.0,4472893.0,P,,,,,,,,,,,,,,,
8.0,11080.0,5_60,20170530.0,5.0,60.0,POZUELO,,S,60.0,10002.0,,93.0,303.0,U,28.0,115.0,11504.0,1150401.0,A0255,Calle, ,Estación,N,2,,,28224.0,2.0,4.0,,T115197,1150401010.0,,6.0,B1,3.0,115-009,996.0,53.0,559-1,2.0,3.0,20030331.0,19860101.0,,432259.0,4477916.0,N,,,,,,,,,,,,,,,
9.0,13438.0,5_61,20170530.0,5.0,61.0,PRINCIPE PIO,Con Vía Ferrocarril,I,61.0,10000.0,,90.0,18.0,U,28.0,79.0,7901.0,790101.0,02239,Paseo,de la,Florida,N,2,,,28008.0,9.0,10.0,91.0,T0798149,790101315.0,1.0,6.0,A,1.0,079-09-230,230.0,54.0,559-1,2.0,3.0,20030331.0,19860101.0,,439007.0,4474950.0,N,,,,,,,,,,,,,,,
10.0,9062.0,5_65,20170530.0,5.0,65.0,RECOLETOS,,I,65.0,18001.0,,92.0,67.0,U,28.0,79.0,7901.0,790101.0,00985,Paseo,de,Recoletos,N,20,,,28001.0,4.0,5.0,41.0,T0798458,790101325.0,1.0,1.0,A,1.0,079-04-070,70.0,57.0,559-1,2.0,3.0,20030331.0,19860101.0,,441504.0,4475190.0,N,,,,,,,,,,,,,,,
11.0,10824.0,5_68,20170530.0,5.0,68.0,"ROZAS, LAS",,S,68.0,10005.0,,93.0,322.0,U,28.0,127.0,12704.0,1270401.0,A0038,Calle,de la,Vía de Servicio de las Rozas,N,1,,,28231.0,1.0,6.0,,T127599,1270401012.0,,6.0,B2,3.0,127-009,1018.0,34.0,558-2,2.0,3.0,20030331.0,19860101.0,,426543.0,4483184.0,N,,,,,,,,,,,,,,,
12.0,10589.0,5_11,20170530.0,5.0,11.0,ATOCHA,,I,11.0,18000.0,,90.0,54.0,U,28.0,79.0,7901.0,790101.0,01357,Avda,de la,Ciudad de Barcelona,N,2,B,,28007.0,2.0,83.0,27.0,T07910055,790101717.0,1.0,4.0,A,1.0,079-02-033,33.0,8.0,559-3,2.0,3.0,20030331.0,19860101.0,,441621.0,4473322.0,T,,,,,,,,,,,,,,,
13.0,10821.0,5_13,20170530.0,5.0,13.0,"BARRIAL-C.COM.POZUELO, EL",Con Vía Ferrocarril,S,13.0,10010.0,,93.0,153.0,U,28.0,79.0,7901.0,790101.0,A0060,Via, ,Ferrocarril,SN,SN,,,28023.0,9.0,72.0,96.0,T0793232,790101990.0,,6.0,B1,3.0,079-09-200,200.0,81.0,559-1,2.0,3.0,20030331.0,19860101.0,,431631.0,4479932.0,N,,,,,,,,,,,,,,,
14.0,13488.0,5_133,20170530.0,5.0,133.0,FUENTE DE LA MORA,,I,133.0,98003.0,,92.0,102.0,U,28.0,79.0,7901.0,790101.0,C0361,Calle,de,Dulce Chacón,N,15,,,28050.0,16.0,106.0,166.0,T0791209,790101154.0,4.0,7.0,A,1.0,079-16-436,436.0,,559-2,2.0,3.0,20110329.0,20110329.0,,443933.0,4481980.0,T,,,,,,,,,,,,,,,
15.0,13713.0,5_18,20170530.0,5.0,18.0,CHAMARTIN,Complejo Ferroviario,I,18.0,17000.0,,90.0,25.0,U,28.0,79.0,7901.0,790101.0,00073,Calle,de,Agustín de Foxá,N,40,,,28036.0,5.0,94.0,56.0,T0791996,790101150.0,1.0,1.0,A,1.0,079-05-086,86.0,11.0,559-2,2.0,3.0,20030331.0,19860101.0,,442257.0,4480589.0,T,,,,,,,,,,,,,,,
16.0,12375.0,5_25,20170530.0,5.0,25.0,DELICIAS,,S,25.0,18004.0,,92.0,181.0,U,28.0,79.0,7901.0,790101.0,05084,Calle,de,Ramírez de Prado,N,3,B,,28045.0,2.0,52.0,25.0,T07910929,790101617.0,,4.0,A,1.0,079-02-035,35.0,73.0,559-3,2.0,3.0,20030331.0,19860101.0,,441322.0,4472634.0,P,,,,,,,,,,,,,,,
17.0,10648.0,5_82,20170530.0,5.0,82.0,TORRELODONES,,S,82.0,10103.0,,93.0,352.0,U,28.0,152.0,15204.0,1520401.0,00474,Plaza,de,Salvador Sánchez Frascuelo,N,6,,,28250.0,1.0,5.0,,T152194,1520401002.0,,6.0,B3,3.0,152-001,1020.0,64.0,533-4,2.0,3.0,20030331.0,19860101.0,,419147.0,4492172.0,P,,,,,,,,,,,,,,,
18.0,11756.0,5_9,20170530.0,5.0,9.0,ARAVACA,Con Calle de las Rosas de Aravaca,S,9.0,10001.0,,92.0,94.0,U,28.0,79.0,7901.0,790101.0,45062,Calle,de la,Golondrina,N,104,,,28023.0,9.0,88.0,97.0,T0795382,790101907.0,5.0,6.0,A,2.0,079-09-204,204.0,6.0,559-1,2.0,3.0,20030331.0,19860101.0,,433469.0,4478023.0,P,,,,,,,,,,,,,,,
19.0,5786.0,5_91,20170530.0,5.0,91.0,VILLALBA,,S,91.0,10200.0,,92.0,371.0,U,28.0,47.0,4705.0,470501.0,A0107,Plaza,de la,Estación,N,1,,,28400.0,1.0,11.0,,T047414,470501006.0,,6.0,B3,3.0,047-006,968.0,69.0,533-2,2.0,3.0,20030331.0,19860101.0,,414849.0,4497977.0,P,,,,,,,,,,,,,,,
